SALE TYPE,SOLD DATE,PROPERTY TYPE,ADDRESS,CITY,STATE OR PROVINCE,ZIP OR POSTAL CODE,PRICE,BEDS,BATHS,LOCATION,SQUARE FEET,LOT SIZE,YEAR BUILT,DAYS ON MARKET,$/SQUARE FEET,HOA/MONTH,STATUS,NEXT OPEN HOUSE START TIME,NEXT OPEN HOUSE END TIME,URL (SEE https://www.redfin.com/buy-a-home/comparative-market-analysis FOR INFO ON PRICING),SOURCE,MLS#,FAVORITE,INTERESTED,LATITUDE,LONGITUDE
MLS Listing,,Single Family Residential,15 Wells Village Rd,Sandown,NH,03873,739900,4,3.5,Sandown,4097,50093,1983,34,181,,Active,,,https://www.redfin.com/NH/Sandown/15-Wells-Village-Rd-03873/home/108631789,PrimeMLS,4974856,N,Y,42.9260629,-71.2013612
MLS Listing,,Single Family Residential,6 Quaker Ln,Seabrook,NH,03874,789900,4,4.0,Seabrook,3900,31363,1999,34,203,,Active,,,https://www.redfin.com/NH/Seabrook/6-Quaker-Ln-03874/home/103035921,PrimeMLS,4974756,N,Y,42.8766184,-70.8625115
MLS Listing,,Single Family Residential,3 Evergreen Way,East Kingston,NH,03827,925500,4,2.5,East Kingston,4801,98881,1994,104,193,,Active,,,https://www.redfin.com/NH/East-Kingston/3-Evergreen-Way-03827/home/88169388,PrimeMLS,4965067,N,Y,42.9475449,-71.0043902
MLS Listing,,Condo/Co-op,49 Stephen C Savage Way Unit 5,Plaistow,NH,03865,730000,3,2.5,Plaistow,2134,,2023,1,342,262,Active,,,https://www.redfin.com/NH/Plaistow/49-Stephen-C-Savage-WAY-03865/unit-5/home/188680721,PrimeMLS,4978509,N,Y,42.83782331499944,-71.09151843383788
MLS Listing,,Multi-Family (5+ Unit),74 Railroad Ave,Epping,NH,03042,975000,10,6.0,Epping,4740,36154,1883,1,206,,Active,,,https://www.redfin.com/NH/Epping/74-Railroad-Ave-03042/home/88333370,PrimeMLS,4978466,N,Y,43.0329782,-71.074244
MLS Listing,,Single Family Residential,7 oakwood Rd,Windham,NH,03087,609000,4,2.5,Windham,1824,43560,1978,1,334,,Active,,,https://www.redfin.com/NH/Windham/7-Oakwood-Rd-03087/home/108620914,PrimeMLS,4978461,N,Y,42.8393053,-71.3381566
MLS Listing,,Multi-Family (5+ Unit),160-164 Front St,Exeter,NH,03833,850000,,5.0,Exeter,3586,6534,1900,1,237,,Active,,,https://www.redfin.com/NH/Exeter/160-Front-St-03833/home/88120721,PrimeMLS,4978459,N,Y,42.978899,-70.961945
MLS Listing,,Single Family Residential,41 Mockingbird Hill Rd,Windham,NH,03087,1049000,3,3.0,Windham,3126,43996,2001,1,336,,Active,November-25-2023 11:00 AM,November-25-2023 01:00 PM,https://www.redfin.com/NH/Windham/41-Mockingbird-Hill-Rd-03087/home/96542508,MLS PIN,73182276,N,Y,42.8243485,-71.2767718
MLS Listing,,Single Family Residential,17 Compromise Ln,Sandown,NH,03873,595000,4,2.5,Sandown,2346,33976,2001,1,254,,Active,,,https://www.redfin.com/NH/Sandown/17-Compromise-Ln-03873/home/96468325,PrimeMLS,4978450,N,Y,42.9591103,-71.1685007
MLS Listing,,Single Family Residential,18 & 20 Maple Ave,Hampstead,NH,03841,634900,3,3.0,Hampstead,2915,44866,1970,1,218,,Active,,,https://www.redfin.com/NH/Hampstead/18-Maple-Ave-03841/home/88198556,PrimeMLS,4978443,N,Y,42.8584559,-71.143221
MLS Listing,,Mobile/Manufactured Home,114 Woodland Cir,Raymond,NH,03077,65000,2,1.0,Raymond,732,,1973,1,89,,Active,,,https://www.redfin.com/NH/Raymond/114-Woodland-Cir-03077/home/88193415,PrimeMLS,4978441,N,Y,43.0567576,-71.2113504
MLS Listing,,Single Family Residential,9 Poplar Dr,Raymond,NH,03077,520000,3,2.0,Raymond,2142,50093,1991,1,243,,Active,November-26-2023 11:00 AM,November-26-2023 01:00 PM,https://www.redfin.com/NH/Raymond/9-Poplar-Dr-03077/home/88192565,PrimeMLS,4978434,N,Y,43.0547562,-71.1704502
MLS Listing,,Mobile/Manufactured Home,520 Canterbury Dr,Exeter,NH,03833,118000,2,1.5,Exeter,952,,1972,1,124,750,Active,,,https://www.redfin.com/NH/Exeter/520-Canterbury-Dr-03833/home/103010924,PrimeMLS,4978432,N,Y,42.9635867,-70.9708758
MLS Listing,,Single Family Residential,74 E Main St,Hampstead,NH,03826,679000,3,1.5,Hampstead,2471,81892,1987,1,275,,Active,,,https://www.redfin.com/NH/East-Hampstead/74-E-Main-St-03826/home/88198796,PrimeMLS,4978429,N,Y,42.881616,-71.129302
MLS Listing,,Single Family Residential,18 Critchett Rd,Raymond,NH,03077,420000,2,2.0,Raymond,1555,265280,1996,1,270,,Active,,,https://www.redfin.com/NH/Raymond/18-Critchett-Rd-03077/home/96502963,PrimeMLS,4978409,N,Y,43.0679545,-71.230529
MLS Listing,,Single Family Residential,18 Longmeadow Rd,Windham,NH,03087,850000,4,2.5,Windham,3364,138956,2014,1,253,,Active,,,https://www.redfin.com/NH/Windham/18-Long-Meadow-Rd-03087/home/63514656,PrimeMLS,4978377,N,Y,42.845024,-71.246831
MLS Listing,,Townhouse,64 Magnolia Ln,Newmarket,NH,03857,479900,3,2.5,Newmarket,2410,,2004,1,199,346,Active,November-26-2023 01:00 PM,November-26-2023 03:00 PM,https://www.redfin.com/NH/Newmarket/64-Magnolia-Ln-03857/home/108634183,PrimeMLS,4978327,N,Y,43.0626589,-70.951622
MLS Listing,,Single Family Residential,6 Captains Dr,Salem,NH,03079,825000,2,2.5,Salem,3502,12196,2005,1,236,,Active,November-24-2023 11:00 AM,November-24-2023 01:00 PM,https://www.redfin.com/NH/Salem/6-Captains-Dr-03079/home/60353375,MLS PIN,73182004,N,Y,42.8041925,-71.177598
MLS Listing,,Single Family Residential,94 Pond St,Salem,NH,03079-4346,475000,3,1.5,Salem,2594,21344,1960,2,183,,Active,November-25-2023 11:00 AM,November-25-2023 01:00 PM,https://www.redfin.com/NH/Salem/94-Pond-St-03079/home/88165140,PrimeMLS,4978291,N,Y,42.750428,-71.1846528
MLS Listing,,Single Family Residential,5 SOUTHWOOD Dr,Londonderry,NH,03053,489000,3,1.0,Londonderry,1700,43560,1978,2,288,,Active,,,https://www.redfin.com/NH/Londonderry/5-Southwood-Dr-03053/home/143922994,PrimeMLS,4978288,N,Y,42.8102864,-71.3536984
MLS Listing,,Single Family Residential,118 South Rd,Kensington,NH,03833,724900,3,2.5,Kensington,3700,187308,1977,2,196,,Active,November-26-2023 11:00 AM,November-26-2023 02:00 PM,https://www.redfin.com/NH/Kensington/118-South-Rd-03833/home/103448430,PrimeMLS,4978287,N,Y,42.9158068,-70.9734052
MLS Listing,,Mobile/Manufactured Home,2 Judith St,Danville,NH,03819,189000,2,1.0,Danville,1181,,1983,2,160,,Active,,,https://www.redfin.com/NH/Danville/2-Judith-St-03819/home/88071778,PrimeMLS,4978280,N,Y,42.9069832,-71.1414399
MLS Listing,,Condo/Co-op,33 Adams Pond Rd Unit L,Derry,NH,03038,324900,3,1.5,Derry,1152,30927,1976,2,282,,Active,,,https://www.redfin.com/NH/Derry/33-Adams-Pond-Rd-03038/unit-L/home/101654258,PrimeMLS,4978257,N,Y,42.905122,-71.273701
MLS Listing,,Single Family Residential,11 Lakeview Ave,Sandown,NH,03873,215000,2,1.0,Sandown,676,8276,1959,2,318,,Active,,,https://www.redfin.com/NH/Sandown/11-Lakeview-Ave-03873/home/108631752,PrimeMLS,4978237,N,Y,42.9051005,-71.1567112
MLS Listing,,Single Family Residential,10 9th St,Kingston,NH,03848,350000,3,1.0,Kingston,1116,8712,1930,2,314,,Active,,,https://www.redfin.com/NH/Kingston/10-9th-St-03848/home/60335579,PrimeMLS,4978225,N,Y,42.9168622,-71.0717486
MLS Listing,,Townhouse,13 Springfield Dr,Hampstead,NH,03826,529000,2,3.0,Hampstead,1984,,2022,2,267,483,Active,November-26-2023 12:00 PM,November-26-2023 02:00 PM,https://www.redfin.com/NH/East-Hampstead/13-Springfield-Dr-03826/home/174881512,PrimeMLS,4978203,N,Y,42.890300000001,-71.1157
MLS Listing,,Condo/Co-op,1171 Sagamore Ave #8,Portsmouth,NH,03801,1450000,3,2.5,Portsmouth,2625,79714,2024,2,552,450,Active,,,https://www.redfin.com/NH/Portsmouth/1171-Sagamore-Ave-03801/unit-8/home/188627289,PrimeMLS,4978202,N,Y,43.0505941,-70.7487158
MLS Listing,,Condo/Co-op,18A Beech St,Newmarket,NH,03857,479000,4,1.0,Newmarket,1537,,1922,4,312,76,Active,November-26-2023 01:00 PM,November-26-2023 03:00 PM,https://www.redfin.com/NH/Newmarket/18-Beech-St-03857/unit-A/home/96672609,PrimeMLS,4978183,N,Y,43.0835788,-70.9412904
MLS Listing,,Single Family Residential,11 Sheafe St,Portsmouth,NH,03801,1695000,4,2.5,Portsmouth,2168,1306,1817,4,782,,Active,,,https://www.redfin.com/NH/Portsmouth/11-Sheafe-St-03801/home/103489763,PrimeMLS,4978167,N,Y,43.0770243,-70.7559936
MLS Listing,,Single Family Residential,5 Elwood Rd,Londonderry,NH,03053,559900,4,2.5,Londonderry,1992,47916,1984,4,281,,Active,November-26-2023 02:00 PM,November-26-2023 04:00 PM,https://www.redfin.com/NH/Londonderry/5-Elwood-Rd-03053/home/143923933,MLS PIN,73181604,N,Y,42.8395808,-71.3982788
MLS Listing,,Vacant Land,M216 L76 First NH Tpke,Northwood,NH,03261,130000,,,Northwood,,479160,,5,,,Active,,,https://www.redfin.com/NH/Northwood/1st-New-Hampshire-Tpke-03261/home/187761233,PrimeMLS,4978142,N,Y,43.22778662834505,-71.23421883087158
MLS Listing,,Vacant Land,126 Harvey Rd,Londonderry,NH,03053,800000,,,Londonderry,,315810,,5,,,Active,,,https://www.redfin.com/NH/Londonderry/126-Harvey-Rd-03053/home/188600286,PrimeMLS,4978112,N,Y,42.923758,-71.422735
MLS Listing,,Single Family Residential,15 Bunker Hill Dr,Londonderry,NH,03053,849900,4,2.5,Londonderry,4160,62726,1999,5,204,,Active,,,https://www.redfin.com/NH/Londonderry/15-Bunker-Hill-Dr-03053/home/143923891,PrimeMLS,4978107,N,Y,42.8546695,-71.4081126
MLS Listing,,Condo/Co-op,38 Glengarry Dr,Stratham,NH,03885,299999,1,1.0,Stratham,1766,,1986,5,170,,Active,,,https://www.redfin.com/NH/Stratham/38-Glengarry-Dr-03885/home/188599568,PrimeMLS,4978089,N,Y,43.046417,-70.893936
MLS Listing,,Condo/Co-op,80 Pond #1,Salem,NH,03079,449900,2,2.5,Salem,1586,,1905,5,284,595,Active,,,https://www.redfin.com/NH/Salem/80-Pond-St-03079/unit-1/home/103715532,MLS PIN,73181465,N,Y,42.7495519,-71.1867646
MLS Listing,,Mobile/Manufactured Home,290 Calef Hwy Unit D30,Epping,NH,03042,99900,2,1.0,Epping,954,,1983,5,105,,Active,,,https://www.redfin.com/NH/Epping/290-Calef-Hwy-03042/unit-D30/home/88333262,PrimeMLS,4978062,N,Y,43.0448313,-71.0632757
MLS Listing,,Single Family Residential,153 Brentwood Rd,Exeter,NH,03833,1480000,4,3.5,Exeter,3670,100623,,5,403,,Active,,,https://www.redfin.com/NH/Exeter/153-Brentwood-Rd-03833/home/103011523,PrimeMLS,4978046,N,Y,42.988819,-70.99811
MLS Listing,,Single Family Residential,11 Cedar St Unit B,Newmarket,NH,03857,549900,3,2.0,Newmarket,1900,11761,1916,5,289,,Active,November-26-2023 01:00 PM,November-26-2023 03:00 PM,https://www.redfin.com/NH/Newmarket/11-Cedar-St-03857/unit-B/home/188506374,PrimeMLS,4978034,N,Y,43.0844652,-70.9421666
MLS Listing,,Mobile/Manufactured Home,98 Elm St,Epping,NH,03042,289900,2,2.0,Epping,1008,26136,1989,6,288,,Active,,,https://www.redfin.com/NH/Epping/98-Elm-St-03042/home/88333454,PrimeMLS,4978029,N,Y,43.0454409,-71.071082
MLS Listing,,Mobile/Manufactured Home,37 Cornwall Ave,Exeter,NH,03833,195000,2,2.0,Exeter,924,,2021,6,211,560,Active,,,https://www.redfin.com/NH/Exeter/37-Cornwall-Ave-03833/home/88119762,PrimeMLS,4978026,N,Y,42.9671405,-70.9689468
MLS Listing,,Single Family Residential,24 Flat Rock Rd,Windham,NH,03087,769900,3,2.5,Windham,2516,27442,2011,6,306,,Active,,,https://www.redfin.com/NH/Windham/24-Flat-Rock-Rd-03087/home/60346747,PrimeMLS,4978022,N,Y,42.836883,-71.2601131
MLS Listing,,Townhouse,401 State St Unit J213,Portsmouth,NH,03801,629000,2,1.5,Portsmouth,804,,1840,6,782,500,Active,,,https://www.redfin.com/NH/Portsmouth/401-State-St-03801/unit-J213/home/96536628,PrimeMLS,4978020,N,Y,43.0753398,-70.7595947
MLS Listing,,Multi-Family (2-4 Unit),19-21 Court St,Exeter,NH,03833,799900,5,4.0,Exeter,4240,5662,1900,6,189,,Active,,,https://www.redfin.com/NH/Exeter/19-Court-St-03833/home/147293069,PrimeMLS,4978017,N,Y,42.9792796,-70.9470696
MLS Listing,,Vacant Land,8 Fordway Rd,Raymond,NH,03077,1200000,,,Raymond,,3920400,,6,,,Active,,,https://www.redfin.com/NH/Raymond/8-Fordway-Rd-03077/home/101647524,PrimeMLS,4978011,N,Y,43.018592,-71.201387
MLS Listing,,Vacant Land,Tax Map 419 Middle Rd Lot 69-4,Deerfield,NH,03037,135000,,,Deerfield,,165963,,6,,,Active,,,https://www.redfin.com/NH/Deerfield/Tax-Map-419-Middle-RD-03037/unit-69-4/home/188592954,PrimeMLS,4978009,N,Y,43.11343727033348,-71.27578152386475
MLS Listing,,Vacant Land,Tax Map 419 Middle Rd Lot 69-3,Deerfield,NH,03037,135000,,,Deerfield,,131115,,6,,,Active,,,https://www.redfin.com/NH/Deerfield/Tax-Map-419-Middle-RD-03037/unit-69-3/home/188592927,PrimeMLS,4978007,N,Y,43.11377404849898,-71.27694023815918
MLS Listing,,Mobile/Manufactured Home,6 Pinto Ln,Londonderry,NH,03053,210000,2,2.0,Londonderry,1137,,2007,6,185,255,Active,,,https://www.redfin.com/NH/Londonderry/6-Pinto-Ln-03053/home/143927629,PrimeMLS,4978006,N,Y,42.8972455,-71.3857541
MLS Listing,,Single Family Residential,4 Richard Ct,Raymond,NH,03077,400000,4,2.0,Raymond,1502,44431,1976,6,266,,Active,,,https://www.redfin.com/NH/Raymond/4-Richard-Ct-03077/home/60350613,PrimeMLS,4977999,N,Y,43.014789,-71.237547
MLS Listing,,Single Family Residential,12 Cullen Way,Exeter,NH,03833,1100000,5,4.5,Exeter,5282,54450,1988,6,208,,Active,,,https://www.redfin.com/NH/Exeter/12-Cullen-Way-03833/home/103011147,PrimeMLS,4977996,N,Y,42.966809,-70.9786884
MLS Listing,,Vacant Land,Tax Map 419 Middle Rd Lot 69-2,Deerfield,NH,03037,135000,,,Deerfield,,138085,,6,,,Active,,,https://www.redfin.com/NH/Deerfield/Tax-Map-419-Middle-RD-03037/unit-69-2/home/188590683,PrimeMLS,4977977,N,Y,43.110555000001,-71.268443
MLS Listing,,Mobile/Manufactured Home,30 Kendall Pond Rd #74,Derry,NH,03038,199000,3,2.0,Derry,2496,,2007,6,80,,Active,,,https://www.redfin.com/NH/Derry/30-Kendall-Pond-Rd-03038/unit-74/home/103052519,PrimeMLS,4977953,N,Y,42.8635075,-71.2954946
MLS Listing,,Mobile/Manufactured Home,1 Slate Run,North Hampton,NH,03862,169000,2,2.0,North Hampton,1008,,1983,6,168,500,Active,,,https://www.redfin.com/NH/North-Hampton/1-Slate-Run-03862/home/103004645,PrimeMLS,4977935,N,Y,42.9955909,-70.8198934
MLS Listing,,Single Family Residential,272 Main St,Salem,NH,03079,419900,1,1.0,Salem,1345,5662,1947,6,312,,Active,,,https://www.redfin.com/NH/Salem/272-Main-St-03079/home/88166214,PrimeMLS,4977931,N,Y,42.7869115,-71.2053061
MLS Listing,,Single Family Residential,3 Drew Woods Dr,Derry,NH,03038,555000,3,3.5,Derry,2304,,1987,6,241,357,Active,,,https://www.redfin.com/NH/Derry/3-Drew-Woods-Dr-03038/home/103054414,PrimeMLS,4977923,N,Y,42.9012379,-71.258489
MLS Listing,,Single Family Residential,66 Farm Ln Unit 68 Farm Lane 2,Seabrook,NH,03874,549000,3,1.5,Seabrook,1344,64468,2004,6,408,,Active,,,https://www.redfin.com/NH/Seabrook/66-Farm-Ln-03874/unit-68-Farm-Lane-2/home/188586742,PrimeMLS,4977921,N,Y,42.8871481,-70.8538204
MLS Listing,,Townhouse,10 Rum Holw Unit B,Fremont,NH,03044,350000,2,1.5,Fremont,1638,64904,1987,6,214,50,Active,,,https://www.redfin.com/NH/Fremont/10-Rum-Holw-03044/unit-B/home/96550680,PrimeMLS,4977918,N,Y,43.0121138,-71.1062534
MLS Listing,,Single Family Residential,13 Whitehorse Dr,Rye,NH,03870,2150000,4,4.5,Rye,6422,95396,2004,7,335,,Active,,,https://www.redfin.com/NH/Rye/13-White-Horse-Dr-03870/home/96446233,PrimeMLS,4977913,N,Y,43.0075613,-70.7925305
MLS Listing,,Single Family Residential,5 Al St,Derry,NH,03038,499900,3,2.0,Derry,1876,21780,1972,7,266,,Active,,,https://www.redfin.com/NH/Derry/5-Al-St-03038/home/96542841,PrimeMLS,4977903,N,Y,42.9337146,-71.3385278
MLS Listing,,Vacant Land,86 B Harriman Hill Rd,Raymond,NH,03077,250000,,,Raymond,,47916,,7,,,Active,,,https://www.redfin.com/NH/Raymond/86-Harriman-Hill-Rd-03077/home/88193313,PrimeMLS,4977897,N,Y,43.0565659,-71.1746275
MLS Listing,,Single Family Residential,86 Harriman Hill Rd,Raymond,NH,03077,550000,3,1.0,Raymond,2189,136778,1858,7,251,,Active,November-25-2023 12:00 PM,November-25-2023 02:00 PM,https://www.redfin.com/NH/Raymond/86-Harriman-Hill-Rd-03077/home/88193816,PrimeMLS,4977896,N,Y,43.0565659,-71.1746275
MLS Listing,,Single Family Residential,59 Millville Cir,Salem,NH,03079,425000,3,1.0,Salem,1568,3920,1950,7,271,,Active,,,https://www.redfin.com/NH/Salem/59-Millville-Cir-03079/home/60342763,PrimeMLS,4977891,N,Y,42.8001134,-71.2142516
MLS Listing,,Condo/Co-op,5 Tsienneto Rd #187,Derry,NH,03038,219900,1,1.0,Derry,840,,1986,7,262,385,Active,,,https://www.redfin.com/NH/Derry/5-Tsienneto-Rd-03038/unit-187/home/96473318,MLS PIN,73180648,N,Y,42.8993833,-71.3209229
MLS Listing,,Single Family Residential,36 Cross St,Salem,NH,03079,579000,3,1.0,Salem,2139,17424,1957,7,271,,Active,,,https://www.redfin.com/NH/Salem/36-Cross-St-03079/home/88152035,PrimeMLS,4977839,N,Y,42.7537068,-71.2261439
MLS Listing,,Single Family Residential,35 Hemlock Way,Portsmouth,NH,03801,949900,3,2.5,Portsmouth,1779,44431,2023,7,534,,Active,,,https://www.redfin.com/NH/Portsmouth/35-Hemlock-WAY-03801/home/185572657,PrimeMLS,4977819,N,Y,43.0330547576781,-70.8098478031158
MLS Listing,,Single Family Residential,45 Hemlock Way,Portsmouth,NH,03801,969900,3,2.5,Portsmouth,2113,93654,2024,7,459,,Active,,,https://www.redfin.com/NH/Portsmouth/45-Hemlock-WAY-03801/home/187640946,PrimeMLS,4977817,N,Y,43.03225483262658,-70.80968687057495
MLS Listing,,Single Family Residential,12 Kristie Ln,Plaistow,NH,03865,849900,4,3.5,Plaistow,3361,35283,1998,7,253,,Active,,,https://www.redfin.com/NH/Plaistow/12-Kristie-Ln-03865/home/88000074,PrimeMLS,4977786,N,Y,42.8445551,-71.083413
MLS Listing,,Condo/Co-op,1 Sterling Hill Ln #116,Exeter,NH,03833,479000,2,2.0,Exeter,1632,,2004,7,294,420,Active,,,https://www.redfin.com/NH/Exeter/1-Sterling-Hill-Ln-03833/unit-116/home/96654673,PrimeMLS,4977782,N,Y,42.9766877,-70.9004686
MLS Listing,,Single Family Residential,208 Long Pond Rd,Danville,NH,03819,499900,3,2.0,Danville,1990,87120,1981,8,251,,Active,November-25-2023 11:00 AM,November-25-2023 01:00 PM,https://www.redfin.com/NH/Danville/208-Long-Pond-Rd-03819/home/182458999,PrimeMLS,4977749,N,Y,42.9211431,-71.1033055
MLS Listing,,Condo/Co-op,3 Longview Dr #305,Atkinson,NH,03811,652986,2,2.0,Atkinson,1708,997959,2022,8,382,428,Active,,,https://www.redfin.com/NH/Atkinson/3-Longview-Dr-03811/unit-305/home/188570169,PrimeMLS,4977736,N,Y,42.83805,-71.16133
MLS Listing,,Condo/Co-op,3 Longview Dr #108,Atkinson,NH,03811,568746,2,2.0,Atkinson,1394,,2023,8,408,428,Active,,,https://www.redfin.com/NH/Atkinson/3-Longview-Dr-03811/unit-108/home/188570140,PrimeMLS,4977735,N,Y,42.83805,-71.16133
MLS Listing,,Condo/Co-op,15 Sargent Dr #5,Raymond,NH,03077,250000,2,1.0,Raymond,814,,1996,8,307,300,Active,,,https://www.redfin.com/NH/Raymond/15-Sargent-Dr-03077/unit-5/home/103028235,PrimeMLS,4977724,N,Y,43.0233888,-71.2308719
MLS Listing,,Condo/Co-op,210 White Cedar Blvd #210,Portsmouth,NH,03801,370000,2,1.0,Portsmouth,804,,1985,9,460,365,Active,,,https://www.redfin.com/NH/Portsmouth/210-White-Cedar-Blvd-03801/unit-210/home/144917557,PrimeMLS,4977686,N,Y,43.030999,-70.784479
MLS Listing,,Single Family Residential,1 Grandview Ter,Sandown,NH,03873,350000,2,1.0,Sandown,840,7840,1960,9,417,,Active,,,https://www.redfin.com/NH/Sandown/1-Grandview-Ter-03873/home/77287678,PrimeMLS,4977679,N,Y,42.9044129,-71.1579064
MLS Listing,,Single Family Residential,20 Brigham Ln,Portsmouth,NH,03801,1550000,3,3.0,Portsmouth,4299,15245,2004,9,361,,Active,,,https://www.redfin.com/NH/Portsmouth/20-Brigham-Ln-03801/home/60341721,PrimeMLS,4977659,N,Y,43.0857217,-70.7702309
MLS Listing,,Townhouse,593 Ocean Blvd Unit A,Hampton,NH,03842,950000,3,3.5,Hampton,2251,,1987,9,422,400,Active,,,https://www.redfin.com/NH/Hampton/593-Ocean-Blvd-03842/unit-A/home/88268029,PrimeMLS,4977648,N,Y,42.9250675,-70.7994292
MLS Listing,,Condo/Co-op,Novas Xing Unit 2B,Epping,NH,03042,524900,2,2.0,Epping,1566,,2023,10,335,307,Active,,,https://www.redfin.com/NH/Epping/Novas-XING-03042/unit-2B/home/188549907,PrimeMLS,4977568,N,Y,42.941378000001,-70.821646
MLS Listing,,Condo/Co-op,Novas Xing Unit 5B,Epping,NH,03042,524900,2,2.0,Epping,1566,,2023,10,335,307,Active,,,https://www.redfin.com/NH/Epping/Novas-XING-03042/unit-5B/home/188549904,PrimeMLS,4977566,N,Y,42.941299000001,-70.821218
MLS Listing,,Condo/Co-op,Novas Xing Unit 4B,Epping,NH,03042,524900,2,2.0,Epping,1566,,2023,10,335,307,Active,,,https://www.redfin.com/NH/Epping/Novas-XING-03042/unit-4B/home/188549903,PrimeMLS,4977567,N,Y,42.941456000001004,-70.821535
MLS Listing,,Single Family Residential,2 Tara Ln,Newton,NH,03858-3619,559900,3,2.0,Newton,1866,47480,1985,11,300,,Active,,,https://www.redfin.com/NH/Newton/2-Tara-Ln-03858/home/77285517,PrimeMLS,4977542,N,Y,42.86549,-71.042232
MLS Listing,,Condo/Co-op,1080 Old Ocean Blvd #4,Rye,NH,03870,1400000,2,2.0,Rye,819,,1982,11,1709,417,Active,,,https://www.redfin.com/NH/Rye/1080-Old-Ocean-Blvd-03870/unit-4/home/108663862,PrimeMLS,4977539,N,Y,43.0266162,-70.7297347
MLS Listing,,Condo/Co-op,Novas Xing Unit 3B,Epping,NH,03042,524900,2,2.0,Epping,1566,,2023,11,335,307,Active,,,https://www.redfin.com/NH/Epping/Novas-XING-03042/unit-3B/home/188543218,PrimeMLS,4977528,N,Y,42.941220000001,-70.82133
MLS Listing,,Single Family Residential,14 Babscott Ln,Kingston,NH,03848,389900,2,1.0,Kingston,660,21780,1950,11,591,,Active,,,https://www.redfin.com/NH/Kingston/14-Babscott-Ln-03848/home/79087184,PrimeMLS,4977526,N,Y,42.9124824,-71.0392954
MLS Listing,,Condo/Co-op,Novas Xing Unit 4A,Epping,NH,03042,524900,2,2.0,Epping,1566,,2023,11,335,307,Active,,,https://www.redfin.com/NH/Epping/Novas-XING-03042/unit-4A/home/188543124,PrimeMLS,4977523,N,Y,42.941456000001004,-70.821535
MLS Listing,,Single Family Residential,5 Mink Run,Brentwood,NH,03833,844900,4,2.5,Brentwood,3130,76665,1997,11,270,,Active,,,https://www.redfin.com/NH/Brentwood/5-Mink-Run-03833/home/87996962,PrimeMLS,4977521,N,Y,42.993859,-71.0541643
MLS Listing,,Condo/Co-op,406 Springbrook Cir #406,Portsmouth,NH,03801,428000,2,2.0,Portsmouth,1071,,1986,12,400,355,Active,,,https://www.redfin.com/NH/Portsmouth/406-Springbrook-Cir-03801/unit-406/home/96445812,PrimeMLS,4977501,N,Y,43.031243,-70.778229
MLS Listing,,Condo/Co-op,99 Foundry Pl #106,Portsmouth,NH,03801,598000,1,1.0,Portsmouth,694,22651,2023,12,862,312,Active,,,https://www.redfin.com/NH/Portsmouth/99-Foundry-Pl-03801/unit-106/home/188537660,PrimeMLS,4977484,N,Y,43.0759246,-70.7644421
MLS Listing,,Condo/Co-op,99 Foundry Pl #107,Portsmouth,NH,03801,550000,1,1.0,Portsmouth,627,22651,2023,12,877,257,Active,,,https://www.redfin.com/NH/Portsmouth/99-Foundry-Pl-03801/unit-107/home/188537659,PrimeMLS,4977483,N,Y,43.0759246,-70.7644421
MLS Listing,,Mobile/Manufactured Home,33 Hagop Rd,Salem,NH,03079,319900,2,2.0,Salem,1200,,2023,12,267,441,Active,,,https://www.redfin.com/NH/Salem/33-Hagop-Rd-03079/home/88153025,PrimeMLS,4977469,N,Y,42.7601814,-71.2155873
MLS Listing,,Single Family Residential,8 Squire Way,East Kingston,NH,03827,724900,4,2.5,East Kingston,2574,50093,2006,12,282,,Active,,,https://www.redfin.com/NH/South-Hampton/8-Squire-Way-03827/home/77462599,PrimeMLS,4977444,N,Y,42.8978118,-71.0224037
MLS Listing,,Condo/Co-op,Novas Xing Unit 3A,Epping,NH,03042,524900,2,2.0,Epping,1566,,2023,12,335,307,Active,,,https://www.redfin.com/NH/Epping/Novas-XING-03042/unit-3A/home/188530880,PrimeMLS,4977421,N,Y,43.03534481522958,-71.09795472356325
MLS Listing,,Single Family Residential,1247 South St,Portsmouth,NH,03801,989000,4,2.5,Portsmouth,2306,5662,1934,12,429,,Active,,,https://www.redfin.com/NH/Portsmouth/1247-South-St-03801/home/87965759,PrimeMLS,4977407,N,Y,43.0625203,-70.7675131
MLS Listing,,Single Family Residential,104 Old County Rd,Plaistow,NH,03865,599000,3,1.5,Plaistow,2847,41742,1962,13,210,,Active,,,https://www.redfin.com/NH/Plaistow/104-Old-County-Rd-03865/home/83492626,MLS PIN,73179313,N,Y,42.8650904,-71.1164661
MLS Listing,,Townhouse,24 Pleasant St,Windham,NH,03087,415000,2,2.5,Windham,1522,,2001,13,273,387,Active,,,https://www.redfin.com/NH/Windham/24-Pleasant-St-03087/home/108620477,PrimeMLS,4977390,N,Y,42.786122,-71.357353
MLS Listing,,Single Family Residential,21 Beacon St,Londonderry,NH,03038,229000,1,1.0,Londonderry,822,43560,1895,13,279,,Active,,,https://www.redfin.com/NH/Derry/21-Beacon-St-03038/home/143922153,PrimeMLS,4977388,N,Y,42.879868000001004,-71.336657
MLS Listing,,Vacant Land,125 Little River Rd,Hampton,NH,03842,1250000,,,Hampton,,49658,,13,,,Active,,,https://www.redfin.com/NH/Hampton/125-Little-River-Rd-03842/home/188515144,PrimeMLS,4977325,N,Y,42.9432463,-70.8165351
MLS Listing,,Single Family Residential,12 Pine Ridge Rd,Windham,NH,03087,734900,3,3.0,Windham,2766,90169,1973,13,266,,Active,,,https://www.redfin.com/NH/Windham/12-Pine-Ridge-Rd-03087/home/88111966,PrimeMLS,4977294,N,Y,42.7959259,-71.261134
MLS Listing,,Condo/Co-op,24 Linden Dr,Hampstead,NH,03826,569999,2,2.5,Hampstead,1952,,2004,13,292,320,Active,,,https://www.redfin.com/NH/East-Hampstead/24-Linden-Dr-03826/home/88199096,PrimeMLS,4977286,N,Y,42.8966101,-71.1467176
MLS Listing,,Single Family Residential,60 Highland St,Candia,NH,03034,599900,3,2.5,Candia,2783,14374,1994,13,216,125,Active,,,https://www.redfin.com/NH/Candia/60-Highland-St-03034/home/88322300,PrimeMLS,4977279,N,Y,43.0676153,-71.3231358
MLS Listing,,Single Family Residential,35 Maverick Dr,Auburn,NH,03032,725000,4,3.5,Auburn,2852,87120,2001,13,254,,Active,,,https://www.redfin.com/NH/Auburn/35-Maverick-Dr-03032/home/108646300,PrimeMLS,4977276,N,Y,42.9739002,-71.3119429
MLS Listing,,Mobile/Manufactured Home,18 Charleston Rdg,Hampstead,NH,03841,349900,2,2.0,Hampstead,1344,,2000,13,260,360,Active,,,https://www.redfin.com/NH/Hampstead/18-Charleston-Rdg-03841/home/88200802,PrimeMLS,4977247,N,Y,42.898762,-71.18163
MLS Listing,,Condo/Co-op,7 Willey Creek Rd #404,Exeter,NH,03833,600000,2,2.0,Exeter,1677,,2019,13,358,385,Active,,,https://www.redfin.com/NH/Exeter/7-Willey-Creek-Rd-03833/unit-404/home/172981657,PrimeMLS,4977237,N,Y,42.998342,-70.9706306
MLS Listing,,Single Family Residential,122 N River Rd,Epping,NH,03042,819000,4,2.5,Epping,2406,123274,2018,13,340,,Active,,,https://www.redfin.com/NH/Epping/122-N-River-Rd-03042/home/63510079,PrimeMLS,4977236,N,Y,43.057374,-71.060643
MLS Listing,,Townhouse,138 driftwood Cir #48,Sandown,NH,03873,569900,2,2.5,Sandown,2000,1960200,2024,13,285,385,Active,,,https://www.redfin.com/NH/Sandown/138-driftwood-CIR-03873/unit-48/home/188506444,PrimeMLS,4977230,N,Y,42.93420149077355,-71.18571620635986
MLS Listing,,Single Family Residential,41 Hawthorne Rd,Windham,NH,03087,1599000,6,3.5,Windham,5564,122403,1998,14,287,,Active,,,https://www.redfin.com/NH/Windham/41-Hawthorne-Rd-03087/home/87954010,PrimeMLS,4977185,N,Y,42.8181872,-71.3286456
MLS Listing,,Single Family Residential,5 Cheshire Ct,Londonderry,NH,03053,824999,4,3.0,Londonderry,4242,68824,1997,14,194,,Active,,,https://www.redfin.com/NH/Londonderry/5-Cheshire-Ct-03053/home/106023745,MLS PIN,73178628,N,Y,42.8288609,-71.3721621
MLS Listing,,Single Family Residential,19 Bennington Rd,Windham,NH,03087,2550000,4,4.5,Windham,6553,120225,2014,14,389,,Active,,,https://www.redfin.com/NH/Windham/19-Bennington-Rd-03087/home/96503869,PrimeMLS,4977145,N,Y,42.7870367,-71.3280889
MLS Listing,,Single Family Residential,32 Nottingham Rd,Windham,NH,03087,989900,4,2.5,Windham,4076,95832,1997,14,243,,Active,,,https://www.redfin.com/NH/Windham/32-Nottingham-Rd-03087/home/108622049,PrimeMLS,4977094,N,Y,42.840952,-71.3153763
MLS Listing,,Single Family Residential,23 Bartlett St,Kingston,NH,03848,458000,2,1.0,Kingston,1467,56628,1963,14,312,,Active,,,https://www.redfin.com/NH/Kingston/23-Bartlett-St-03848/home/88173210,PrimeMLS,4977079,N,Y,42.9321333,-71.0502178
MLS Listing,,Single Family Residential,12 Willow Ave,North Hampton,NH,03862,3800000,7,5.5,North Hampton,6456,31798,1895,14,589,,Active,,,https://www.redfin.com/NH/North-Hampton/12-Willow-Ave-03862/home/87967925,PrimeMLS,4977075,N,Y,42.9620541,-70.7744818
MLS Listing,,Single Family Residential,67 September Dr,Greenland,NH,03840,358100,3,2.0,Greenland,2196,72745,1989,15,163,,Active,,,https://www.redfin.com/NH/Greenland/67-September-Dr-03840/home/108624919,PrimeMLS,4977040,N,Y,43.0172721,-70.8306463
MLS Listing,,Townhouse,5 Juniper Ln,Portsmouth,NH,03801,599900,3,2.5,Portsmouth,1550,1930143,2023,15,387,275,Active,,,https://www.redfin.com/NH/Portsmouth/5-Juniper-LN-03801/home/187622939,PrimeMLS,4977034,N,Y,43.02269413716708,-70.79909750938415
MLS Listing,,Single Family Residential,55 Railroad Ave,Seabrook,NH,03874,399900,2,1.0,Seabrook,1294,21344,1880,15,309,,Active,,,https://www.redfin.com/NH/Seabrook/55-Railroad-Ave-03874/home/88235174,PrimeMLS,4977014,N,Y,42.8877989,-70.8666454
MLS Listing,,Single Family Residential,33 Gerry Dr,Danville,NH,03819,550000,3,2.0,Danville,1768,87120,1997,15,311,,Active,,,https://www.redfin.com/NH/Danville/33-Gerry-Dr-03819/home/88071934,PrimeMLS,4977000,N,Y,42.913543,-71.119558
MLS Listing,,Townhouse,400 High St #14,Hampton,NH,03842,479900,2,2.5,Hampton,1192,,2001,15,403,305,Active,,,https://www.redfin.com/NH/Hampton/400-High-St-03842/unit-14/home/88265977,PrimeMLS,4976982,N,Y,42.9393446,-70.8081905
MLS Listing,,Multi-Family (5+ Unit),"401A,401B,401C Ocean Blvd Unit 3 lots",Hampton,NH,03842,1790000,13,7.0,Hampton,3818,14374,1900,16,469,,Active,,,https://www.redfin.com/NH/Hampton/401C-Ocean-Blvd-03842/unit-3-lots/home/188466965,PrimeMLS,4976926,N,Y,42.9179268,-70.80584
MLS Listing,,Vacant Land,4 Shipwright Way Lot 4,Newington,NH,03801,1300000,,,Newington,,93218,,16,,,Active,,,https://www.redfin.com/NH/Newington/4-Newington-St-03801/unit-4/home/188465936,PrimeMLS,4976912,N,Y,43.0875666,-70.8138398
MLS Listing,,Vacant Land,2 Merry Meeting Ln,Rye,NH,03870,795000,,,Rye,,143312,,16,,,Active,,,https://www.redfin.com/NH/Rye/2-Merry-Meeting-Ln-03870/home/183021273,PrimeMLS,4976892,N,Y,43.012907,-70.7756017
MLS Listing,,Single Family Residential,155 Main,Kingston,NH,03848,439900,4,3.0,Kingston,2247,52272,1770,16,196,,Active,,,https://www.redfin.com/NH/Kingston/155-Main-St-03848/home/88175042,MLS PIN,73177773,N,Y,42.9343685,-71.0538393
MLS Listing,,Single Family Residential,401C Ocean Blvd,Hampton,NH,03842,849500,3,2.0,Hampton,1224,3484,2018,16,694,,Active,,,https://www.redfin.com/NH/Hampton/401-Ocean-Blvd-03842/unit-C/home/88266338,PrimeMLS,4976867,N,Y,42.9174624,-70.8057007
MLS Listing,,Mobile/Manufactured Home,12 ICEY HILL Rd,Exeter,NH,03833,249000,2,2.0,Exeter,1280,,2023,16,195,420,Active,,,https://www.redfin.com/NH/Exeter/12-Icy-Hl-03833/home/103009544,PrimeMLS,4976848,N,Y,42.9660296,-70.969107
MLS Listing,,Vacant Land,Deerfield Rd #12,Northwood,NH,03261,189900,,,Northwood,,78408,,16,,,Active,,,https://www.redfin.com/NH/Northwood/12-Deerfield-Rd-03261/unit-12/home/188458464,PrimeMLS,4976847,N,Y,43.1807025,-71.1827807
MLS Listing,,Mobile/Manufactured Home,79 End St,Salem,NH,03079,135000,1,1.0,Salem,408,,1990,16,331,412,Active,,,https://www.redfin.com/NH/Salem/79-End-St-03079/home/188452584,PrimeMLS,4976831,N,Y,42.7784141,-71.2257456
MLS Listing,,Single Family Residential,24 Newfields Rd,Exeter,NH,03833,1100000,4,2.5,Exeter,3703,117612,1812,16,297,,Active,,,https://www.redfin.com/NH/Exeter/24-Newfields-Rd-03833/home/88120105,PrimeMLS,4976817,N,Y,42.9993328,-70.947505
MLS Listing,,Condo/Co-op,46 Leddy Dr,Epping,NH,03042,494900,2,2.5,Epping,1828,,2014,16,271,370,Active,,,https://www.redfin.com/NH/Epping/46-Leddy-Dr-03042/home/182447133,PrimeMLS,4976815,N,Y,43.0285847,-71.0789794
MLS Listing,,Single Family Residential,3 Old Coffeetown Rd,Deerfield,NH,03037,389900,3,1.0,Deerfield,1591,101494,1980,17,245,,Active,,,https://www.redfin.com/NH/Deerfield/3-Old-Coffeetown-Rd-03037/home/88274273,PrimeMLS,4976798,N,Y,43.1679719,-71.2336155
MLS Listing,,Vacant Land,Kenison Pond Rd,Nottingham,NH,03290,275000,,,Nottingham,,958320,,17,,,Active,,,https://www.redfin.com/NH/Nottingham/Kenison-Pond-Rd-03290/home/88121669,PrimeMLS,4976789,N,Y,43.168876,-71.144191
MLS Listing,,Single Family Residential,198 Beach Plain Rd,Danville,NH,03819,749900,4,1.0,Danville,2814,87555,1760,19,266,,Active,,,https://www.redfin.com/NH/Danville/198-Beach-Plain-Rd-03819/home/88071041,PrimeMLS,4976707,N,Y,42.9432343,-71.0964582
MLS Listing,,Single Family Residential,25 Birch St,Derry,NH,03038,410000,4,2.0,Derry,1528,11761,1880,19,268,,Active,,,https://www.redfin.com/NH/Derry/25-Birch-St-03038/home/88320461,PrimeMLS,4976676,N,Y,42.8796073,-71.322243
MLS Listing,,Single Family Residential,25 North Rd,Kensington,NH,03833,899900,3,3.0,Kensington,2885,69696,1985,19,312,,Active,,,https://www.redfin.com/NH/Kensington/25-North-Rd-03833/home/96666638,PrimeMLS,4976675,N,Y,42.9404646,-70.9393315
MLS Listing,,Condo/Co-op,1 Liberty Lantern Ln Unit 1,Fremont,NH,03044,499900,2,2.0,Fremont,1484,,2023,19,337,376,Active,,,https://www.redfin.com/NH/Fremont/1-Liberty-Lantern-LN-03044/unit-1/home/188372904,PrimeMLS,4976667,N,Y,42.9714530992207,-71.1124018246641
MLS Listing,,Single Family Residential,4 Schurman Ave,Portsmouth,NH,03801,735000,4,2.0,Portsmouth,1621,6098,1940,19,453,,Active,,,https://www.redfin.com/NH/Portsmouth/4-Schurman-Ave-03801/home/87967270,PrimeMLS,4976640,N,Y,43.0621939,-70.8016126
MLS Listing,,Vacant Land,0 Coffeetown Rd,Deerfield,NH,03037,925000,,,Deerfield,,4443120,,19,,,Active,,,https://www.redfin.com/NH/Deerfield/0-Coffeetown-Rd-03037/home/188368427,PrimeMLS,4976621,N,Y,43.1643641,-71.2012932
MLS Listing,,Single Family Residential,480 Sagamore Rd,Rye,NH,03870,1425000,4,3.5,Rye,2773,143748,2015,20,514,,Active,,,https://www.redfin.com/NH/Rye/480-Sagamore-Rd-03870/home/108663787,PrimeMLS,4976578,N,Y,43.0277727,-70.7537146
MLS Listing,,Single Family Residential,5 Drury Plains Rd,Stratham,NH,03885,829900,4,2.5,Stratham,3951,47916,1989,20,210,,Active,,,https://www.redfin.com/NH/Stratham/5-Drury-Plains-Rd-03885/home/88034072,PrimeMLS,4976520,N,Y,42.9851437,-70.9090046
MLS Listing,,Multi-Family (2-4 Unit),6A-6B Dearborn St,Portsmouth,NH,03801,2500000,,2.0,Portsmouth,1839,14374,1830,20,1359,,Active,,,https://www.redfin.com/NH/Portsmouth/6-Dearborn-St-03801/home/103489668,PrimeMLS,4976476,N,Y,43.0797142,-70.766491
MLS Listing,,Single Family Residential,10 Dearborn St,Portsmouth,NH,03801,2500000,2,2.5,Portsmouth,2780,14374,1982,20,899,,Active,,,https://www.redfin.com/NH/Portsmouth/10-Dearborn-St-03801/home/188318696,PrimeMLS,4976473,N,Y,43.0796701,-70.7665124
MLS Listing,,Condo/Co-op,8 Granite Ln #5,Chester,NH,03036,483900,2,2.5,Chester,1892,2831400,2008,20,256,475,Active,,,https://www.redfin.com/NH/Chester/8-Granite-Ln-03036/unit-5/home/175761519,PrimeMLS,4976424,N,Y,42.9478801,-71.2718317
MLS Listing,,Single Family Residential,119 Haverhill Rd,Windham,NH,03087,599000,3,2.0,Windham,1628,58370,1989,21,368,,Active,,,https://www.redfin.com/NH/Windham/119-Haverhill-Rd-03087/home/108620927,PrimeMLS,4976402,N,Y,42.804998,-71.3398964
MLS Listing,,Single Family Residential,6 Stoneybrook Ln,Kingston,NH,03848,595000,2,2.0,Kingston,1960,90604,1985,21,304,,Active,,,https://www.redfin.com/NH/Kingston/6-Stoneybrook-Ln-03848/home/88173266,PrimeMLS,4976382,N,Y,42.9052621,-71.0736636
MLS Listing,,Single Family Residential,44 Dumbarton Oaks Rd,Stratham,NH,03885,775000,4,2.5,Stratham,2220,70567,1988,21,349,,Active,,,https://www.redfin.com/NH/Stratham/44-Dumbarton-Oaks-03885/home/88034608,PrimeMLS,4976378,N,Y,43.0517403,-70.9039421
MLS Listing,,Single Family Residential,4 Ronnie Ln,Kingston,NH,03848,570000,3,2.0,Kingston,2736,117612,1989,21,208,,Active,,,https://www.redfin.com/NH/Kingston/4-Ronnie-Ln-03848/home/88175246,PrimeMLS,4976345,N,Y,42.933131,-71.0524
MLS Listing,,Condo/Co-op,5 Longview Dr #108,Atkinson,NH,03811,545000,2,2.0,Atkinson,1394,,2020,21,391,429,Active,,,https://www.redfin.com/NH/Atkinson/5-Longview-Dr-03811/unit-108/home/177872371,PrimeMLS,4976317,N,Y,42.83805,-71.16133
MLS Listing,,Single Family Residential,9 Scribner Rd,Raymond,NH,03077,729900,3,2.5,Raymond,2512,298386,2023,21,291,,Active,,,https://www.redfin.com/NH/Raymond/9-Scribner-Rd-03077/home/188226386,PrimeMLS,4976310,N,Y,43.0287077,-71.2070335
MLS Listing,,Single Family Residential,133 Deer Hill Rd,Brentwood,NH,03833,474900,3,2.5,Brentwood,1696,43560,1981,21,280,,Active,,,https://www.redfin.com/NH/Brentwood/133-Deer-Hill-Rd-03833/home/103006076,PrimeMLS,4976294,N,Y,43.0093349,-71.0332246
MLS Listing,,Single Family Residential,12 Cote Cir,Raymond,NH,03077,350000,2,1.0,Raymond,828,7405,1945,21,423,,Active,,,https://www.redfin.com/NH/Raymond/12-Cote-Cir-03077/home/88192843,PrimeMLS,4976287,N,Y,43.0373941,-71.1868807
MLS Listing,,Single Family Residential,15 Hobbs Rd,North Hampton,NH,03862,799999,3,3.5,North Hampton,3631,65775,1920,21,220,,Active,,,https://www.redfin.com/NH/North-Hampton/15-Hobbs-Rd-03862/home/87968347,PrimeMLS,4976266,N,Y,42.9803137,-70.8370102
MLS Listing,,Condo/Co-op,16 Perkins Ave Unit C,Hampton,NH,03842,449000,3,2.0,Hampton,1200,,1940,22,374,,Active,,,https://www.redfin.com/NH/Hampton/16-Perkins-Ave-03842/unit-C/home/188218599,PrimeMLS,4976203,N,Y,42.905663,-70.8146839
MLS Listing,,Single Family Residential,127-1 Exeter Rd,North Hampton,NH,03862,1200000,4,2.5,North Hampton,3000,87120,,22,400,,Active,,,https://www.redfin.com/NH/North-Hampton/127-Exeter-Rd-03862/home/175175386,PrimeMLS,4976171,N,Y,42.9718656,-70.8813106
MLS Listing,,Single Family Residential,660 Exeter Rd,Hampton,NH,03842,850000,5,2.5,Hampton,2560,47480,1741,22,332,,Active,,,https://www.redfin.com/NH/Hampton/660-Exeter-Rd-03842/home/88261391,MLS PIN,73175591,N,Y,42.9648643,-70.8888009
MLS Listing,,Single Family Residential,239 Shore Dr,Salem,NH,03079,550000,2,1.0,Salem,904,3485,1940,23,608,,Active,,,https://www.redfin.com/NH/Salem/239-Shore-Dr-03079/home/60350886,MLS PIN,73175493,N,Y,42.8228856,-71.2149014
MLS Listing,,Townhouse,23 Ash Dr,Kingston,NH,03848,439900,2,2.0,Kingston,1598,,2004,23,275,450,Active,,,https://www.redfin.com/NH/Kingston/23-Ash-Dr-03848/home/88174953,PrimeMLS,4976035,N,Y,42.898615,-71.033181
MLS Listing,,Single Family Residential,4 Newbury Rd,Windham,NH,03087,4850000,5,7.5,Windham,12766,139392,2007,24,380,,Active,,,https://www.redfin.com/NH/Windham/4-Newbury-Rd-03087/home/96548208,PrimeMLS,4975994,N,Y,42.8318492,-71.277259
MLS Listing,,Single Family Residential,6 Oxford Rd,Derry,NH,03038,499900,3,1.5,Derry,2243,24829,1968,25,223,,Active,November-26-2023 12:00 PM,November-26-2023 02:00 PM,https://www.redfin.com/NH/Derry/6-Oxford-Rd-03038/home/103054797,PrimeMLS,4975955,N,Y,42.9036849,-71.3226142
MLS Listing,,Single Family Residential,71 Shipwright Way,Newington,NH,03801,3750000,4,4.5,Newington,4955,87555,2024,25,757,,Active,,,https://www.redfin.com/NH/Newington/71-Shipwright-WAY-03801/home/188196025,PrimeMLS,4975929,N,Y,43.1139657830941,-70.8283765029907
MLS Listing,,Condo/Co-op,99 Foundry Pl #208,Portsmouth,NH,03801,775000,1,1.5,Portsmouth,943,22651,2023,26,822,485,Active,,,https://www.redfin.com/NH/Portsmouth/99-Foundry-Pl-03801/unit-208/home/188194603,PrimeMLS,4975898,N,Y,43.0759246,-70.7644421
MLS Listing,,Single Family Residential,7 Hemlock St,Hampton,NH,03842,650000,3,2.0,Hampton,1424,3920,1952,26,456,,Active,,,https://www.redfin.com/NH/Hampton/7-Hemlock-St-03842/home/88261378,PrimeMLS,4975826,N,Y,42.930986,-70.804352
MLS Listing,,Single Family Residential,62 Deerfield Rd,Raymond,NH,03077,494700,4,2.0,Raymond,2061,36154,1974,26,240,,Active,,,https://www.redfin.com/NH/Raymond/62-Deerfield-Rd-03077/home/88193264,PrimeMLS,4975793,N,Y,43.075676,-71.2237307
MLS Listing,,Single Family Residential,13 Evergreen Dr,North Hampton,NH,03862,1575750,5,4.5,North Hampton,4454,89733,2002,26,354,,Active,,,https://www.redfin.com/NH/North-Hampton/13-Evergreen-Dr-03862/home/87968516,PrimeMLS,4975792,N,Y,42.9894093,-70.8370567
MLS Listing,,Mobile/Manufactured Home,211A Robinhood Dr,Exeter,NH,03833,171000,2,2.0,Exeter,924,,2012,27,185,799,Active,,,https://www.redfin.com/NH/Exeter/211-Robinhood-Dr-03833/home/103010526,PrimeMLS,4975728,N,Y,42.963727,-70.968034
MLS Listing,,Single Family Residential,43 Stratham Ln,Greenland,NH,03840,1399000,4,3.5,Greenland,3003,63162,2023,27,466,,Active,,,https://www.redfin.com/NH/Greenland/43-Stratham-Ln-03840/home/188185235,PrimeMLS,4975714,N,Y,43.0426509,-70.8742241
MLS Listing,,Single Family Residential,54 Ocean Blvd,North Hampton,NH,03862,12500000,7,10.0,North Hampton,13449,48787,1885,27,929,,Active,,,https://www.redfin.com/NH/North-Hampton/54-Ocean-Blvd-03862/home/87968142,PrimeMLS,4975699,N,Y,42.9603792,-70.7738082
MLS Listing,,Single Family Residential,29 Gundalow Landing Cir,Newington,NH,03801,998000,3,2.5,Newington,2210,117176,1988,27,452,,Active,,,https://www.redfin.com/NH/Newington/29-Gundalow-Lndg-03801/home/88268681,PrimeMLS,4975696,N,Y,43.0987204,-70.8521532
MLS Listing,,Condo/Co-op,19 Cricket Hill Rd,East Kingston,NH,03827,510000,2,2.5,East Kingston,2398,,2004,27,213,380,Active,,,https://www.redfin.com/NH/East-Kingston/19-Cricket-Hl-03827/home/60359816,PrimeMLS,4975689,N,Y,42.932474,-71.008463
MLS Listing,,Multi-Family (2-4 Unit),25 Pleasant St,Salem,NH,03079,779000,6,2.0,Salem,2999,19166,1937,27,260,,Active,,,https://www.redfin.com/NH/Salem/25-Pleasant-St-03079/home/103713130,PrimeMLS,4950140,N,Y,42.7796511,-71.2312
MLS Listing,,Single Family Residential,11 Barron Ave,Salem,NH,03079,449900,3,2.0,Salem,1132,25700,1977,27,397,,Active,,,https://www.redfin.com/NH/Salem/11-Barron-Ave-03079/home/88150794,MLS PIN,73174409,N,Y,42.7536909,-71.2108289
MLS Listing,,Single Family Residential,4 Alex Way,Stratham,NH,03885,1399900,4,3.0,Stratham,4316,244371,2015,27,324,,Active,,,https://www.redfin.com/NH/Stratham/4-Alex-Way-03885/home/67974128,PrimeMLS,4975624,N,Y,43.022428,-70.86667
MLS Listing,,Townhouse,21 Gypsum Ln,Chester,NH,03036,599900,2,2.5,Chester,2000,,2024,27,300,,Active,,,https://www.redfin.com/NH/Chester/21-Gypsum-Ln-03036/home/188163467,PrimeMLS,4975621,N,Y,42.94720785331308,-71.27333988227844
MLS Listing,,Townhouse,13 Gypsum Ln,Chester,NH,03036,579900,2,2.5,Chester,2000,,2023,27,290,,Active,,,https://www.redfin.com/NH/Chester/13-Gypsum-Ln-03036/home/188163185,PrimeMLS,4975619,N,Y,42.94723926655516,-71.2727390674591
MLS Listing,,Single Family Residential,32 Bancroft Rd Unit 78-1,Londonderry,NH,03053,735222,3,2.5,Londonderry,2392,67518,2023,27,307,,Active,November-26-2023 10:00 AM,November-26-2023 12:00 PM,https://www.redfin.com/NH/Londonderry/32-Bancroft-Rd-03053/unit-78-1/home/187428097,PrimeMLS,4975612,N,Y,42.8859757,-71.3700246
MLS Listing,,Single Family Residential,17 Horseshoe Dr,Derry,NH,03038,499000,4,1.5,Derry,2030,23958,1966,28,246,,Active,,,https://www.redfin.com/NH/Derry/17-Horseshoe-Dr-03038/home/103054119,PrimeMLS,4975528,N,Y,42.9072885,-71.3110613
MLS Listing,,Mobile/Manufactured Home,804 Nottingham Dr,Exeter,NH,03833,130000,2,2.0,Exeter,1300,,1976,28,100,750,Active,,,https://www.redfin.com/NH/Exeter/804-Nottingham-Dr-03833/home/103010023,PrimeMLS,4975504,N,Y,42.962802,-70.972539
MLS Listing,,Condo/Co-op,190 Kings Hwy Unit B4,Hampton,NH,03842,539000,2,2.0,Hampton,1154,,1984,28,467,363,Active,,,https://www.redfin.com/NH/Hampton/190-Kings-Hwy-03842/unit-B4/home/88261269,PrimeMLS,4975494,N,Y,42.9411966,-70.7956895
MLS Listing,,Single Family Residential,10 Acre St,Epping,NH,03042,450000,3,1.0,Epping,1471,68389,1860,28,306,,Active,,,https://www.redfin.com/NH/Epping/10-Acre-St-03042/home/88332722,PrimeMLS,4975480,N,Y,43.033519,-71.069828
MLS Listing,,Condo/Co-op,23 Ash #23,Kingston,NH,03848,439900,2,2.0,Kingston,1598,,2004,28,275,450,Active,,,https://www.redfin.com/NH/Kingston/23-Ash-Dr-03848/unit-23/home/96658342,MLS PIN,73173925,N,Y,42.898615,-71.033181
MLS Listing,,Mobile/Manufactured Home,18 Willow Rd,Newton,NH,03859,199900,2,2.0,Newton,858,,2023,28,233,420,Active,,,https://www.redfin.com/NH/Newton/18-Willow-Rd-03858/home/88074590,PrimeMLS,4975435,N,Y,42.8592353,-71.0759621
MLS Listing,,Single Family Residential,145 High St,Portsmouth,NH,03801,1495000,2,2.0,Portsmouth,1260,3049,2007,28,1187,,Active,,,https://www.redfin.com/NH/Portsmouth/145-High-St-03801/home/87963753,PrimeMLS,4975432,N,Y,43.0787596,-70.7593805
MLS Listing,,Single Family Residential,337 Thornton St,Portsmouth,NH,03801,680000,3,2.0,Portsmouth,1276,3049,1870,29,533,,Active,,,https://www.redfin.com/NH/Portsmouth/337-Thornton-St-03801/home/87962353,PrimeMLS,4975382,N,Y,43.0739118,-70.7755968
MLS Listing,,Townhouse,23 Gypsum Ln,Chester,NH,03036,599900,2,2.5,Chester,2000,,2024,29,300,,Active,,,https://www.redfin.com/NH/Chester/23-Gypsum-Ln-03036/home/188163562,PrimeMLS,4975356,N,Y,42.947199999999995,-71.27307166137696
MLS Listing,,Townhouse,19 Gypsum Ln,Chester,NH,03036,579900,2,2.5,Chester,2000,,2023,29,290,,Active,,,https://www.redfin.com/NH/Chester/19-Gypsum-Ln-03036/home/188163304,PrimeMLS,4975348,N,Y,42.94723926655519,-71.27281416931153
MLS Listing,,Single Family Residential,"29 Cliffs at Evergreen, Cliffside Dr",Auburn,NH,03032,754900,2,2.5,Auburn,2000,,,29,377,415,Active,November-23-2023 11:00 AM,November-23-2023 02:00 PM,https://www.redfin.com/NH/Auburn/29-Cliffs-at-Evergreen-Cliffside-DR-Unknown/home/188161630,PrimeMLS,4975300,N,Y,43.0212853955898,-71.362435491333
MLS Listing,,Condo/Co-op,1171 Sagamore Ave #1,Portsmouth,NH,03801,1200000,3,2.5,Portsmouth,2625,79714,2024,29,457,450,Active,,,https://www.redfin.com/NH/Portsmouth/1171-Sagamore-Ave-03801/unit-1/home/188160811,PrimeMLS,4975281,N,Y,43.0505941,-70.7487158
MLS Listing,,Single Family Residential,51 Depot Rd,Hampton Falls,NH,03833,1999999,7,7.0,Hampton Falls,7647,313632,1984,30,262,,Active,,,https://www.redfin.com/NH/Hampton-Falls/51-Depot-Rd-03844/home/143824916,PrimeMLS,4975268,N,Y,42.91088,-70.853336
MLS Listing,,Single Family Residential,73 Holts Point Rd,Sandown,NH,03873,539900,3,2.0,Sandown,1686,71002,1986,30,320,,Active,,,https://www.redfin.com/NH/Sandown/73-Holts-Point-Rd-03873/home/88157766,PrimeMLS,4975263,N,Y,42.899552,-71.164959
MLS Listing,,Single Family Residential,9 Ashleys Way,Seabrook,NH,03874,595000,3,2.0,Seabrook,1547,64468,2023,30,385,,Active,,,https://www.redfin.com/NH/Seabrook/9-Ashleys-Way-03874/home/103036094,PrimeMLS,4975236,N,Y,42.869967,-70.85023
MLS Listing,,Single Family Residential,204 Raymond Rd,Deerfield,NH,03037,539900,4,2.0,Deerfield,2960,109335,1750,30,182,,Active,,,https://www.redfin.com/NH/Deerfield/204-Raymond-Rd-03037/home/88273790,PrimeMLS,4975214,N,Y,43.0850268,-71.2296245
MLS Listing,,Single Family Residential,74 Beechwood Dr,Danville,NH,03819,599000,5,3.0,Danville,4411,87555,1988,30,136,,Active,,,https://www.redfin.com/NH/Danville/74-Beechwood-Dr-03819/home/88071984,PrimeMLS,4975210,N,Y,42.9353355,-71.1065319
MLS Listing,,Condo/Co-op,992 South St #1,Portsmouth,NH,03801,795000,3,1.5,Portsmouth,1600,6969,1920,31,497,775,Active,,,https://www.redfin.com/NH/Portsmouth/992-South-St-03801/unit-1/home/188147875,PrimeMLS,4975120,N,Y,43.0634286,-70.7628723
MLS Listing,,Mobile/Manufactured Home,905 Camelot Dr,Exeter,NH,03833,150000,3,1.5,Exeter,1278,,1977,32,117,799,Active,,,https://www.redfin.com/NH/Exeter/905-Camelot-Dr-03833/home/103011284,PrimeMLS,4975097,N,Y,42.9628558,-70.9714291
MLS Listing,,Multi-Family (2-4 Unit),15 Water St,Epping,NH,03042,249900,2,1.0,Epping,2092,2178,1900,32,119,,Active,,,https://www.redfin.com/NH/Epping/15-Water-St-03042/home/173040625,PrimeMLS,4975071,N,Y,43.0381978,-71.0727351
MLS Listing,,Single Family Residential,19 Mill Pond Ln,Hampton,NH,03842,432000,2,1.0,Hampton,718,4791,1940,32,602,,Active,,,https://www.redfin.com/NH/Hampton/19-Mill-Pond-Ln-03842/home/88261157,PrimeMLS,4975068,N,Y,42.942683,-70.7997079
MLS Listing,,Single Family Residential,5 Woodmeadow Dr,Salem,NH,03079,1300000,5,4.5,Salem,7421,35719,1985,33,175,,Active,,,https://www.redfin.com/NH/Salem/5-Woodmeadow-Dr-03079/home/88165855,PrimeMLS,4975011,N,Y,42.7928573,-71.2114787
MLS Listing,,Condo/Co-op,231 Sage Ln #51,Portsmouth,NH,03801,1275000,3,2.5,Portsmouth,2650,,2023,33,481,300,Active,,,https://www.redfin.com/NH/Portsmouth/231-Sage-Ln-03801/unit-51/home/188135178,PrimeMLS,4974994,N,Y,43.05482055132622,-70.78494422874452
MLS Listing,,Single Family Residential,56 Drakeside Rd Unit A (The House),Hampton,NH,03842,579900,3,2.5,Hampton,2225,84506,1953,33,261,190,Active,,,https://www.redfin.com/NH/Hampton/56-Drakeside-Rd-03842/unit-A/home/88268633,PrimeMLS,4974982,N,Y,42.9343031,-70.8433116
MLS Listing,,Single Family Residential,1 Orchid Springs Dr,Atkinson,NH,03811,1095000,4,3.5,Atkinson,4917,132858,2003,33,223,,Active,,,https://www.redfin.com/NH/Atkinson/1-Orchid-Springs-Dr-03811/home/88063291,PrimeMLS,4974971,N,Y,42.843964,-71.129386
MLS Listing,,Single Family Residential,115 Folly Mill Rd,Salisbury,MA,01952,299999,3,1.0,Salisbury,1132,10890,1987,33,265,,Active,,,https://www.redfin.com/MA/Salisbury/115-Folly-Mill-Rd-01952/home/8365897,MLS PIN,73172588,N,Y,42.8829623,-70.8867224
MLS Listing,,Single Family Residential,159 Ashworth Ave,Hampton,NH,03842,885000,5,2.0,Hampton,2322,3484,1910,33,381,,Active,,,https://www.redfin.com/NH/Hampton/159-Ashworth-Ave-03842/home/88263676,PrimeMLS,4974920,N,Y,42.903637,-70.8142018
MLS Listing,,Townhouse,35 Juniper Ln,Portsmouth,NH,03801,695000,3,2.5,Portsmouth,1900,1930143,2023,33,366,275,Active,November-29-2023 11:00 AM,November-29-2023 01:00 PM,https://www.redfin.com/NH/Portsmouth/35-Juniper-LN-03801/home/188132060,PrimeMLS,4974907,N,Y,43.02227057724753,-70.79926917076111
MLS Listing,,Townhouse,12 Juniper Ln,Portsmouth,NH,03801,715000,3,2.5,Portsmouth,1900,1930143,2023,33,376,275,Active,November-29-2023 11:00 AM,November-29-2023 01:00 PM,https://www.redfin.com/NH/Portsmouth/12-Juniper-LN-03801/home/188132044,PrimeMLS,4974906,N,Y,43.02260785667892,-70.79900094985962
MLS Listing,,Townhouse,8 Juniper Ln,Portsmouth,NH,03801,679900,3,2.5,Portsmouth,1575,1930143,2023,33,432,275,Active,November-29-2023 11:00 AM,November-29-2023 01:00 PM,https://www.redfin.com/NH/Portsmouth/8-Juniper-LN-03801/home/188132035,PrimeMLS,4974904,N,Y,43.02273335552944,-70.79867908477783
MLS Listing,,Single Family Residential,31 Wilshire Dr,Londonderry,NH,03053,669900,4,3.0,Londonderry,3064,43560,1978,34,219,,Active,,,https://www.redfin.com/NH/Londonderry/31-Wilshire-Dr-03053/home/143924241,PrimeMLS,4974885,N,Y,42.8525578,-71.3808369
MLS Listing,,Single Family Residential,6 Rockaway St,Portsmouth,NH,03801,1100000,4,2.0,Portsmouth,1822,20473,1937,34,604,,Active,,,https://www.redfin.com/NH/Portsmouth/6-Rockaway-St-03801/home/87962132,PrimeMLS,4974882,N,Y,43.0609074,-70.7668626
MLS Listing,,Single Family Residential,183 Lane Rd,Chester,NH,03036,379000,2,1.5,Chester,1510,32670,1948,35,251,,Active,,,https://www.redfin.com/NH/Chester/183-Lane-Rd-03036/home/143428352,PrimeMLS,4974692,N,Y,42.9932408,-71.2312934
MLS Listing,,Multi-Family (2-4 Unit),18 Perkins Ave,Hampton,NH,03842,869000,6,4.0,Hampton,1944,2178,1950,35,447,,Active,,,https://www.redfin.com/NH/Hampton/18-Perkins-Ave-03842/home/63526697,PrimeMLS,4974679,N,Y,42.9057065,-70.8151309
MLS Listing,,Townhouse,6 Delphi Way Unit 6,Londonderry,NH,03053,569900,2,1.5,Londonderry,1890,,2023,35,302,200,Active,,,https://www.redfin.com/NH/Londonderry/6-Delphi-WAY-Unknown/unit-6/home/188107112,PrimeMLS,4974678,N,Y,42.83833773416954,-71.39104300537107
MLS Listing,,Single Family Residential,21 Bennington,Windham,NH,03087,1849000,4,3.5,Windham,4093,138520,2010,35,452,,Active,,,https://www.redfin.com/NH/Windham/21-Bennington-Rd-03087/home/108620809,MLS PIN,73171717,N,Y,42.7874287,-71.3274626
MLS Listing,,Mobile/Manufactured Home,290 Calef Hwy Unit A30,Epping,NH,03042,110000,2,1.0,Epping,948,,1984,35,116,502,Active,,,https://www.redfin.com/NH/Epping/290-Calef-Hwy-03042/unit-A30/home/103056767,PrimeMLS,4974628,N,Y,43.0448313,-71.0632757
MLS Listing,,Single Family Residential,3 Pine Knoll Dr,Atkinson,NH,03811,894000,4,3.0,Atkinson,3965,142005,1993,35,225,,Active,,,https://www.redfin.com/NH/Atkinson/3-Pine-Knoll-Dr-03811/home/88064528,PrimeMLS,4974612,N,Y,42.85255,-71.1359857
MLS Listing,,Single Family Residential,115 Court St,Portsmouth,NH,03801,2300000,4,2.5,Portsmouth,2273,1742,1904,36,1012,,Active,,,https://www.redfin.com/NH/Portsmouth/115-Court-St-03801/home/87963269,PrimeMLS,4974520,N,Y,43.0748198,-70.7589645
MLS Listing,,Single Family Residential,42 Hillside Ave,Derry,NH,03038,472000,3,2.0,Derry,1026,4791,2023,36,460,,Active,,,https://www.redfin.com/NH/Derry/42-Hillside-Ave-03038/home/145072354,PrimeMLS,4974440,N,Y,42.8797562,-71.3342583
MLS Listing,,Single Family Residential,16 Ocean View Ave,Rye,NH,03870,1250000,3,2.0,Rye,1760,2613,1987,36,710,,Active,,,https://www.redfin.com/NH/Rye/16-Oceanview-Ave-03870/home/88283668,PrimeMLS,4974398,N,Y,43.0232729,-70.7362917
MLS Listing,,Single Family Residential,298 Exeter,Hampton Falls,NH,03844,1425000,4,3.5,Hampton Falls,3300,239580,1850,36,432,,Active,,,https://www.redfin.com/NH/Hampton-Falls/298-Exeter-Rd-03844/home/143824977,MLS PIN,73170943,N,Y,42.956701,-70.90628
MLS Listing,,Condo/Co-op,1 Brook Rd #9,Salem,NH,03079,249900,2,1.0,Salem,891,,1966,37,280,347,Active,,,https://www.redfin.com/NH/Salem/1-Brook-Rd-03079/unit-9/home/188108233,PrimeMLS,4974383,N,Y,42.7649606,-71.2188689
MLS Listing,,Townhouse,1 Delphi Way Unit 1,Londonderry,NH,03053,569900,2,1.5,Londonderry,1890,,2023,37,302,200,Active,,,https://www.redfin.com/NH/Londonderry/1-Delphi-WAY-03053/unit-1/home/188089603,PrimeMLS,4974359,N,Y,42.8381803902087,-71.3908928016663
MLS Listing,,Single Family Residential,13 Showell Pond Rd,Sandown,NH,03873,599900,2,3.0,Sandown,1830,13068,2023,37,328,,Active,,,https://www.redfin.com/NH/Sandown/13-Showell-Pond-Rd-03873/home/88158122,MLS PIN,73170756,N,Y,42.910433,-71.1720747
MLS Listing,,Single Family Residential,247 Lower Collins St,Seabrook,NH,03874,679000,3,2.5,Seabrook,2250,14810,,37,302,,Active,,,https://www.redfin.com/NH/Seabrook/247-Lower-Collins-St-03874/home/188082814,PrimeMLS,4974281,N,Y,42.8742256,-70.8456719
MLS Listing,,Vacant Land,40 Whittier St,Newton,NH,03853,399900,,,Newton,,135036,,38,,,Active,,,https://www.redfin.com/NH/Newton/40-Whittier-St-03858/home/88073199,PrimeMLS,4974254,N,Y,42.873799,-71.0532473
MLS Listing,,Single Family Residential,6 Sylvan Rd,North Hampton,NH,03862,675000,3,2.0,North Hampton,2264,16117,1962,38,298,,Active,,,https://www.redfin.com/NH/North-Hampton/6-Sylvan-Rd-03862/home/87968722,PrimeMLS,4973772,N,Y,42.9673447,-70.8402154
MLS Listing,,Single Family Residential,4 Dancers Image Ln,North Hampton,NH,03862,17995000,5,7.5,North Hampton,9443,1839538,2001,39,1906,,Active,,,https://www.redfin.com/NH/North-Hampton/4-Dancers-Image-Ln-03862/home/87968386,PrimeMLS,4974210,N,Y,42.9610194,-70.7899289
MLS Listing,,Single Family Residential,40 Vennard's Ct,New Castle,NH,03854,2395000,4,2.0,New Castle,2010,85813,1905,40,1192,,Active,,,https://www.redfin.com/NH/New-Castle/40-Vennard-s-CT-03854/home/185444136,PrimeMLS,4974155,N,Y,43.070217000001,-70.719356
MLS Listing,,Condo/Co-op,21 Epping Rd Unit 4,Exeter,NH,03833,434999,2,1.5,Exeter,1122,,1900,40,388,350,Active,,,https://www.redfin.com/NH/Exeter/21-Epping-Rd-03833/unit-4/home/103010935,PrimeMLS,4974129,N,Y,42.9847669,-70.9609589
MLS Listing,,Mobile/Manufactured Home,12 Stage Coach Cir,Londonderry,NH,03053,199900,2,2.0,Londonderry,840,,2023,40,238,,Active,,,https://www.redfin.com/NH/Londonderry/12-Stage-Coach-Cir-03053/home/143927634,PrimeMLS,4974083,N,Y,42.8960787,-71.3849322
MLS Listing,,Single Family Residential,119 Orcutt Dr,Chester,NH,03036,750000,4,2.5,Chester,3373,114562,2000,40,222,,Active,,,https://www.redfin.com/NH/Chester/119-Orcutt-Dr-03036/home/103423652,PrimeMLS,4974008,N,Y,42.9665578,-71.2652176
MLS Listing,,Single Family Residential,2 Marcona Ln Lot 39-0,Londonderry,NH,03053,839900,4,2.5,Londonderry,3026,101494,2023,41,278,,Active,November-25-2023 11:00 AM,November-25-2023 01:00 PM,https://www.redfin.com/NH/Londonderry/2-Marcona-Ln-03053/unit-39-0/home/187681715,MLS PIN,73169929,N,Y,42.8892537,-71.3905586
MLS Listing,,Condo/Co-op,14 Atlantic Ave #2,Hampton,NH,03842,569000,2,1.0,Hampton,491,4791,1930,41,1159,276,Active,,,https://www.redfin.com/NH/Hampton/14-Atlantic-Ave-03842/unit-2/home/186206651,PrimeMLS,4962743,N,Y,42.9023254,-70.8115075
MLS Listing,,Vacant Land,0 Newington Rd Lot 0,Newington,NH,03801,899900,,,Newington,,59677,,41,,,Active,,,https://www.redfin.com/NH/Newington/Newington-Rd-03801/home/103450165,PrimeMLS,4973912,N,Y,43.068181,-70.834386
MLS Listing,,Multi-Family (2-4 Unit),335 Wadleigh Falls Rd,Newmarket,NH,03857,450000,2,2.0,Newmarket,936,60112,1984,41,481,,Active,,,https://www.redfin.com/NH/Newmarket/335-Wadleigh-Falls-Rd-03857/home/108634017,PrimeMLS,4973873,N,Y,43.0801,-70.964084
MLS Listing,,Townhouse,Bovee Way Trailside Lndg Unit 3B,Epping,NH,03042,429900,2,2.5,Epping,1510,,2023,41,285,120,Active,,,https://www.redfin.com/NH/Epping/6A-Biggs-Ave-03042/unit-3B/home/187980527,PrimeMLS,4973849,N,Y,43.0325556,-71.0765765
MLS Listing,,Condo/Co-op,352 Miller Ave #2,Portsmouth,NH,03801,459000,1,1.0,Portsmouth,714,,1927,41,643,385,Active,,,https://www.redfin.com/NH/Portsmouth/352-Miller-Ave-03801/unit-2/home/87960156,PrimeMLS,4973819,N,Y,43.0669204,-70.7586373
MLS Listing,,Single Family Residential,9 Myles Dr,Derry,NH,03038,599500,2,2.0,Derry,1700,,2020,42,353,295,Active,,,https://www.redfin.com/NH/Derry/9-Myles-Dr-03038/home/171041831,PrimeMLS,4973803,N,Y,42.904984,-71.314286
MLS Listing,,Single Family Residential,49 Tasker Shore Dr,Northwood,NH,03261,749900,3,2.5,Northwood,2680,147668,2023,42,280,,Active,,,https://www.redfin.com/NH/Northwood/49-Tasker-Shore-Dr-03261/home/187970877,PrimeMLS,4973796,N,Y,43.2191274,-71.2473472
MLS Listing,,Single Family Residential,18 Church St,Kingston,NH,03848,769900,3,2.0,Kingston,2133,217800,1850,42,361,,Active,November-25-2023 11:00 AM,November-25-2023 02:00 PM,https://www.redfin.com/NH/Kingston/18-Church-St-03848/home/88173772,PrimeMLS,4973783,N,Y,42.9395459,-71.0562071
MLS Listing,,Multi-Family (2-4 Unit),184 Echo Ave,Portsmouth,NH,03801,985000,6,2.0,Portsmouth,2840,41817,1900,42,347,,Active,,,https://www.redfin.com/NH/Portsmouth/184-Echo-Ave-03801/home/87967014,PrimeMLS,4973750,N,Y,43.0827,-70.7897454
MLS Listing,,Single Family Residential,44 Mill Rd,North Hampton,NH,03862,1450000,4,2.5,North Hampton,3742,95832,2000,42,387,,Active,,,https://www.redfin.com/NH/North-Hampton/44-Mill-Rd-03862/home/87968304,PrimeMLS,4973706,N,Y,42.9627578,-70.8210538
MLS Listing,,Mobile/Manufactured Home,53 B St,Seabrook,NH,03874,225000,2,2.0,Seabrook,1120,,1988,42,201,425,Active,,,https://www.redfin.com/NH/Seabrook/53-B-St-03874/home/88234495,MLS PIN,73168993,N,Y,42.9030346,-70.8632547
MLS Listing,,Single Family Residential,44 Poplin Dr,Fremont,NH,03044,474000,3,2.0,Fremont,2252,43995,1985,42,210,,Active,,,https://www.redfin.com/NH/Fremont/44-Poplin-Dr-03044/home/70414084,PrimeMLS,4973643,N,Y,42.9887698,-71.1254717
MLS Listing,,Condo/Co-op,16 Crestview Cir #177,Londonderry,NH,03053,299000,2,2.0,Londonderry,956,,2005,42,313,300,Active,,,https://www.redfin.com/NH/Londonderry/16-Crestview-Cir-03053/unit-177/home/143926595,PrimeMLS,4973619,N,Y,42.9117364,-71.3773346
MLS Listing,,Single Family Residential,3 Lakeview St,Salem,NH,03079,419900,2,1.0,Salem,858,11325,1949,42,489,,Active,,,https://www.redfin.com/NH/Salem/3-Lakeview-St-03079/home/60339926,PrimeMLS,4973606,N,Y,42.7985175,-71.2496721
MLS Listing,,Single Family Residential,8 Sunset Rd,Salem,NH,03079,699900,2,2.0,Salem,1403,4791,1953,43,499,,Active,,,https://www.redfin.com/NH/Salem/8-Sunset-Rd-03079/home/78606393,PrimeMLS,4973560,N,Y,42.8272941,-71.2111074
MLS Listing,,Condo/Co-op,20 N St #404,Hampton,NH,03842,719000,2,2.0,Hampton,1390,,2015,43,517,282,Active,,,https://www.redfin.com/NH/Hampton/20-N-St-03842/unit-404/home/109827064,MLS PIN,73168535,N,Y,42.9037936,-70.8134121
MLS Listing,,Condo/Co-op,275 Pioneer Rd #6,Rye,NH,03870,449000,1,1.0,Rye,540,,1940,43,831,,Active,,,https://www.redfin.com/NH/Rye/275-Pioneer-Rd-03870/unit-6/home/187919861,PrimeMLS,4973547,N,Y,43.0457022,-70.731025
MLS Listing,,Condo/Co-op,273 Pioneer Rd #5,Rye,NH,03870,449000,1,1.0,Rye,540,,1940,43,831,,Active,,,https://www.redfin.com/NH/Rye/273-Pioneer-Rd-03870/unit-5/home/187918898,PrimeMLS,4973511,N,Y,43.0456646,-70.7304282
MLS Listing,,Condo/Co-op,51 Islington St Unit 1B,Portsmouth,NH,03801,1350000,3,2.0,Portsmouth,2118,,2011,43,637,674,Active,,,https://www.redfin.com/NH/Portsmouth/51-Islington-St-03801/unit-1B/home/179359972,PrimeMLS,4973499,N,Y,43.0754531,-70.7621457
MLS Listing,,Single Family Residential,7 Pinehurst Ave,Derry,NH,03038,415000,3,2.0,Derry,1074,19166,1895,43,386,,Active,,,https://www.redfin.com/NH/Derry/7-Pinehurst-Ave-03038/home/88321435,PrimeMLS,4973494,N,Y,42.8695483,-71.3254791
MLS Listing,,Vacant Land,46 Upper Camp Rd #46,Northwood,NH,03261,125000,,,Northwood,,30927,,44,,,Active,,,https://www.redfin.com/NH/Northwood/46-Upper-Camp-Rd-03261/unit-46/home/187204824,PrimeMLS,4967543,N,Y,43.1783288,-71.162309
MLS Listing,,Single Family Residential,96 Chestnut St,Portsmouth,NH,03801,1979000,2,2.5,Portsmouth,1972,2178,1842,46,1004,,Active,,,https://www.redfin.com/NH/Portsmouth/96-Chestnut-St-03801/home/87963264,PrimeMLS,4973315,N,Y,43.0749002,-70.7590269
MLS Listing,,Single Family Residential,60 Main St,Exeter,NH,03833,1190000,5,4.5,Exeter,4005,14374,1830,46,297,,Active,,,https://www.redfin.com/NH/Exeter/60-Main-St-03833/home/96586877,PrimeMLS,4972129,N,Y,42.9823202,-70.9553533
MLS Listing,,Vacant Land,00 Buttrick Rd,Hampstead,NH,03841,299900,,,Hampstead,,570636,,47,,,Active,,,https://www.redfin.com/NH/Hampstead/0-Buttrick-Rd-03841/Rear/home/187853132,PrimeMLS,4973241,N,Y,42.8914329,-71.1701101
MLS Listing,,Single Family Residential,235 Pioneer Rd,Rye,NH,03870,2250000,4,3.5,Rye,5053,357627,1999,47,445,,Active,,,https://www.redfin.com/NH/Rye/235-Pioneer-Rd-03870/home/96690178,PrimeMLS,4973170,N,Y,43.0444595,-70.7322959
MLS Listing,,Condo/Co-op,32 Ashworth Ave #315,Hampton,NH,03842,194900,1,1.0,Hampton,378,,1988,47,516,275,Active,,,https://www.redfin.com/NH/Hampton/32-Ashworth-Ave-03842/unit-315/home/58234377,PrimeMLS,4973150,N,Y,42.91187,-70.8126921
MLS Listing,,Single Family Residential,51B The Grove Dr,Portsmouth,NH,03801,1650000,4,2.5,Portsmouth,2728,,2023,48,605,349,Active,,,https://www.redfin.com/NH/Portsmouth/51B-The-Grove-DR-03801/home/187843959,PrimeMLS,4973066,N,Y,43.06872708263121,-70.76771566390991
MLS Listing,,Single Family Residential,51A The Grove Dr,Portsmouth,NH,03801,1650000,4,2.5,Portsmouth,2728,,2023,48,605,349,Active,,,https://www.redfin.com/NH/Portsmouth/51A-The-Grove-DR-03801/home/187843340,PrimeMLS,4973050,N,Y,43.0687192448393,-70.76757618904114
MLS Listing,,Single Family Residential,16 Greenfield Dr,Plaistow,NH,03865,770000,3,3.0,Greenfield Hill Estates,3137,,1997,48,245,,Active,,,https://www.redfin.com/NH/Plaistow/16-Greenfield-Dr-03865/home/103006429,MLS PIN,73167312,N,Y,42.8341519,-71.0679532
MLS Listing,,Single Family Residential,47 Drew Woods Dr,Derry,NH,03038,499900,3,3.0,Derry,1886,,1989,48,265,325,Active,,,https://www.redfin.com/NH/Derry/47-Drew-Woods-Dr-03038/home/60356359,PrimeMLS,4972974,N,Y,42.9029431,-71.2564008
MLS Listing,,Single Family Residential,25 Hope Hill Rd,Derry,NH,03038,564900,3,2.0,Derry,2069,54450,1990,48,273,,Active,,,https://www.redfin.com/NH/Derry/25-Hope-Hill-Rd-03038/home/88320907,PrimeMLS,4972970,N,Y,42.8502923,-71.3323573
MLS Listing,,Condo/Co-op,4 Page Ln Unit B,Hampton,NH,03842,339000,2,1.0,Hampton,540,,1940,48,628,370,Active,,,https://www.redfin.com/NH/Hampton/4-Page-Ln-03842/unit-B/home/187839124,PrimeMLS,4972967,N,Y,42.9131673,-70.8137721
MLS Listing,,Condo/Co-op,4 Page Ln,Hampton,NH,03862,429000,2,1.0,Hampton,1080,,1940,48,397,476,Active,,,https://www.redfin.com/NH/Hampton/4-Page-Ln-03842/home/88263654,PrimeMLS,4972966,N,Y,42.9131673,-70.8137721
MLS Listing,,Condo/Co-op,4 Page Ln Unit A,Hampton,NH,03842,429000,2,1.0,Hampton,1056,,2000,48,406,476,Active,,,https://www.redfin.com/NH/Hampton/4-Page-Ln-03842/unit-A/home/187839072,PrimeMLS,4972964,N,Y,42.9131673,-70.8137721
MLS Listing,,Single Family Residential,1681 Ocean Blvd,Rye,NH,03870,4300000,3,3.5,Rye,3786,109771,2022,49,1136,,Active,,,https://www.redfin.com/NH/Rye/1681-Ocean-Blvd-03870/home/96562387,PrimeMLS,4972864,N,Y,43.0042552,-70.7456326
MLS Listing,,Townhouse,55 Ocean Rd #13,Portsmouth,NH,03801,769000,3,2.5,Portsmouth,1900,,2022,49,405,250,Active,,,https://www.redfin.com/NH/Portsmouth/55-Ocean-Rd-03801/unit-13/home/177920245,PrimeMLS,4972818,N,Y,43.0253171,-70.7947781
MLS Listing,,Condo/Co-op,22 Columbia St,Portsmouth,NH,03801,665000,2,2.0,Portsmouth,1237,8276,1900,49,538,345,Active,,,https://www.redfin.com/NH/Portsmouth/22-Columbia-St-03801/home/87960925,PrimeMLS,4972798,N,Y,43.0715496,-70.7685629
MLS Listing,,Vacant Land,21 Quimby Dr #21,Northwood,NH,03261,105000,,,Northwood,,52272,,49,,,Active,,,https://www.redfin.com/NH/Northwood/21-Quimby-Dr-03261/unit-21/home/187813231,PrimeMLS,4972750,N,Y,43.2457067,-71.2535706
MLS Listing,,Vacant Land,20 Quimby Dr #20,Northwood,NH,03261,105000,,,Northwood,,56628,,49,,,Active,,,https://www.redfin.com/NH/Northwood/20-Quimby-Dr-03261/unit-20/home/187813224,PrimeMLS,4972749,N,Y,43.2457057,-71.2533952
MLS Listing,,Townhouse,134 driftwood Cir #46,Sandown,NH,03873,559900,2,2.5,Sandown,2000,1960200,2023,49,280,385,Active,,,https://www.redfin.com/NH/Sandown/134-driftwood-CIR-03873/unit-46/home/187813133,PrimeMLS,4972747,N,Y,42.93913421543048,-71.15310054473876
MLS Listing,,Townhouse,19 Juniper Ln,Portsmouth,NH,03801,649900,3,2.5,Portsmouth,1550,1930143,2023,49,419,275,Active,November-29-2023 11:00 AM,November-29-2023 01:00 PM,https://www.redfin.com/NH/Portsmouth/19-Juniper-LN-03801/home/188477172,PrimeMLS,4972724,N,Y,43.02238823307336,-70.79956957817078
MLS Listing,,Townhouse,15 Juniper Ln,Portsmouth,NH,03801,649900,3,2.5,Portsmouth,1550,1930143,2023,49,419,275,Active,November-29-2023 11:00 AM,November-29-2023 01:00 PM,https://www.redfin.com/NH/Portsmouth/15-Juniper-LN-03801/home/187812283,PrimeMLS,4972720,N,Y,43.02270982451444,-70.80030986785889
MLS Listing,,Single Family Residential,42 Ryan Rd,Auburn,NH,03032,589900,4,2.5,Auburn,2515,119354,2000,49,235,,Active,,,https://www.redfin.com/NH/Auburn/42-Ryan-Rd-03032/home/88232680,MLS PIN,73166534,N,Y,42.9909215,-71.3093678
MLS Listing,,Single Family Residential,26 Charleston Rdg,Hampstead,NH,03841,335000,2,2.0,Hampstead,1658,,2000,49,202,360,Active,,,https://www.redfin.com/NH/Hampstead/26-Charleston-Rdg-03841/home/88198881,PrimeMLS,4972680,N,Y,42.897917,-71.182273
MLS Listing,,Single Family Residential,20 Twitchells Way,Sandown,NH,03873,619000,3,2.0,Sandown,2422,58806,2012,50,256,,Active,,,https://www.redfin.com/NH/Sandown/20-Twitchells-Way-03873/home/88157741,PrimeMLS,4972647,N,Y,42.9447281,-71.1817288
MLS Listing,,Single Family Residential,43 Glade Path,Hampton,NH,03842,544900,2,1.0,Hampton,954,4791,1950,50,571,,Active,,,https://www.redfin.com/NH/Hampton/43-Glade-Path-03842/home/88262487,PrimeMLS,4972607,N,Y,42.916449,-70.8183595
MLS Listing,,Single Family Residential,107 Chester Rd,Derry,NH,03038,848900,4,2.5,Derry,2508,93218,2023,50,338,,Active,,,https://www.redfin.com/NH/Derry/107-Chester-Rd-03038/home/96553651,PrimeMLS,4972431,N,Y,42.9122664,-71.2989513
MLS Listing,,Condo/Co-op,597-R Lafayette Rd #103,Hampton,NH,03842,349999,2,2.0,Hampton,1104,,2003,50,317,365,Active,,,https://www.redfin.com/NH/Hampton/597R-Lafayette-Rd-03842/unit-103/home/88264899,PrimeMLS,4972565,N,Y,42.944034,-70.833596
MLS Listing,,Single Family Residential,96 Back Rd Unit 2-47-4,Danville,NH,03819,699900,4,2.5,Danville,2573,108900,2023,50,272,,Active,,,https://www.redfin.com/NH/Danville/96-Back-Rd-03819/unit-2-47-4/home/186587608,PrimeMLS,4972562,N,Y,42.9519252,-71.1029065
MLS Listing,,Single Family Residential,159 Crawley Falls Rd,Brentwood,NH,03833,1125000,4,4.0,Brentwood,3874,566280,1790,50,290,,Active,,,https://www.redfin.com/NH/Brentwood/159-Crawley-Falls-Rd-03833/home/87997530,MLS PIN,73166041,N,Y,42.9792406,-71.0728396
MLS Listing,,Single Family Residential,37A Highland Ave,Hampton,NH,03842,449900,2,1.0,Hampton,612,2178,1940,50,735,,Active,,,https://www.redfin.com/NH/Hampton/37-Highland-Ave-03842/unit-A/home/88268490,PrimeMLS,4972537,N,Y,42.9147272,-70.8119256
MLS Listing,,Single Family Residential,4 Robin Rd,Rye,NH,03870,1450000,2,2.5,Rye,2086,6534,1930,51,695,,Active,,,https://www.redfin.com/NH/Rye/4-Robin-Rd-03870/home/60337750,PrimeMLS,4972454,N,Y,43.0296036,-70.725373
MLS Listing,,Mobile/Manufactured Home,422 Striped Bass Ave,Portsmouth,NH,03801,389000,2,2.0,Portsmouth,1296,,2020,51,300,511,Active,,,https://www.redfin.com/NH/Portsmouth/422-Striped-Bass-Ave-03801/home/178786351,PrimeMLS,4972369,N,Y,43.0192938,-70.7948301
MLS Listing,,Mobile/Manufactured Home,1 Deer Run Ln,Northwood,NH,03261,125000,3,2.0,Northwood,1512,,1999,51,83,930,Active,,,https://www.redfin.com/NH/Northwood/1-Deer-Run-Ln-03261/home/88205304,PrimeMLS,4972360,N,Y,43.2064652,-71.1722793
MLS Listing,,Condo/Co-op,28 Kings Hwy #2,Hampton,NH,03842,419000,2,1.0,Hampton,672,,1920,53,624,410,Active,,,https://www.redfin.com/NH/Hampton/28-Kings-Hwy-03842/unit-2/home/103794549,PrimeMLS,4972274,N,Y,42.9286114,-70.7994351
MLS Listing,,Single Family Residential,10 First St,Sandown,NH,03873-2445,699900,4,2.5,Sandown,3506,327135,2005,54,200,,Active,,,https://www.redfin.com/NH/Sandown/10-1st-St-03873/home/88157893,PrimeMLS,4972220,N,Y,42.9226974,-71.1930071
MLS Listing,,Single Family Residential,212 Lafayette St,Hampton,NH,03842,1975000,6,3.0,Hampton,4572,129808,1769,54,432,,Active,,,https://www.redfin.com/NH/Hampton/212-Lafayette-Rd-03842/home/88266069,MLS PIN,73165205,N,Y,42.9335804,-70.8397276
MLS Listing,,Single Family Residential,40 Recreation Rd,Rye,NH,03870,1249000,4,2.5,Rye,3007,46609,1982,54,415,,Active,,,https://www.redfin.com/NH/Rye/40-Recreation-Rd-03870/home/88284134,PrimeMLS,4972189,N,Y,43.0033628,-70.7609159
MLS Listing,,Single Family Residential,990 Ocean Blvd,Hampton,NH,03842,1400000,3,2.5,Hampton,2882,6534,1998,54,486,,Active,November-25-2023 12:00 PM,November-25-2023 02:00 PM,https://www.redfin.com/NH/Hampton/990-Ocean-Blvd-03842/home/88266293,PrimeMLS,4972177,N,Y,42.9449253,-70.7889766
MLS Listing,,Single Family Residential,746 Middle Rd,Portsmouth,NH,03801,1350000,4,2.5,Portsmouth,2000,43560,1889,54,675,,Active,,,https://www.redfin.com/NH/Portsmouth/746-Middle-Rd-03801/home/87962072,PrimeMLS,4972138,N,Y,43.0590159,-70.7785934
MLS Listing,,Condo/Co-op,960 Sagamore Ave #13,Portsmouth,NH,03801,1399000,2,2.5,Portsmouth,1925,43560,2023,55,727,767,Active,,,https://www.redfin.com/NH/Portsmouth/960-Sagamore-Ave-03801/unit-13/home/179699554,PrimeMLS,4972112,N,Y,43.0537709,-70.7479575
MLS Listing,,Vacant Land,68 Atlantic Ave,North Hampton,NH,03862,3650000,,,North Hampton,,274863,,55,,,Active,,,https://www.redfin.com/NH/North-Hampton/68-Atlantic-Ave-03862/home/87968502,PrimeMLS,4972007,N,Y,42.963312,-70.7910503
MLS Listing,,Condo/Co-op,550 Winnacunnet Rd #212,Hampton,NH,03842,236900,1,1.0,Hampton,280,,1989,55,846,270,Active,,,https://www.redfin.com/NH/Hampton/550-Winnacunnet-Rd-03842/unit-212/home/88267797,MLS PIN,73164560,N,Y,42.9279475,-70.8013909
MLS Listing,,Single Family Residential,15 Chase St,Kingston,NH,03848,685000,5,2.0,Kingston,3221,220413,1760,55,213,,Active,,,https://www.redfin.com/NH/Kingston/15-Chase-St-03848/home/88174560,PrimeMLS,4971931,N,Y,42.9433858,-71.0556964
MLS Listing,,Single Family Residential,13 Nashua Rd,Windham,NH,03087,850000,4,3.5,Windham,3464,69696,1890,56,245,,Active,,,https://www.redfin.com/NH/Windham/13-Nashua-Rd-03087/home/88112294,PrimeMLS,4971895,N,Y,42.8271166,-71.3191344
MLS Listing,,Single Family Residential,19 Hammond Rd,Deerfield,NH,03037,294900,2,1.5,Deerfield,872,5227,1964,56,338,,Active,,,https://www.redfin.com/NH/Deerfield/19-Hammond-Rd-03037/home/88272620,PrimeMLS,4971894,N,Y,43.1599971,-71.2376994
MLS Listing,,Single Family Residential,47 Nudd Ave,Hampton,NH,03842,569900,2,1.0,Hampton,720,4791,1949,56,792,,Active,,,https://www.redfin.com/NH/Hampton/47-Nudd-Ave-03842/home/88264327,PrimeMLS,4971809,N,Y,42.9146756,-70.8133192
MLS Listing,,Single Family Residential,11 Tabor Rd,Hampstead,NH,03841,515000,3,2.0,Hampstead,2088,4791,1960,56,247,,Active,,,https://www.redfin.com/NH/Hampstead/11-Tabor-Rd-03841/home/88201238,PrimeMLS,4971802,N,Y,42.8951866,-71.1623739
MLS Listing,,Single Family Residential,3 Lilac Ridge Rd,Windham,NH,03087,3299900,5,6.5,Windham,7734,105850,2023,56,427,,Active,,,https://www.redfin.com/NH/Windham/3-Lilac-Ridge-Rd-03087/home/185016631,PrimeMLS,4971729,N,Y,42.8352405,-71.26659
MLS Listing,,Single Family Residential,18 Coburn St,Salem,NH,03079,459900,2,2.0,Salem,1368,4792,1918,56,336,,Active,,,https://www.redfin.com/NH/Salem/18-Coburn-St-03079/home/60346418,MLS PIN,73163874,N,Y,42.831719,-71.2239627
MLS Listing,,Single Family Residential,229 Post Rd,North Hampton,NH,03862,769900,4,2.5,North Hampton,3593,94960,1993,57,214,,Active,,,https://www.redfin.com/NH/North-Hampton/229-Post-Rd-03862/home/87967639,PrimeMLS,4971645,N,Y,43.0026467,-70.8449249
MLS Listing,,Single Family Residential,221 S Main St,Seabrook,NH,03874,599900,4,2.0,Seabrook,1758,14810,1880,57,341,,Active,,,https://www.redfin.com/NH/Seabrook/221-S-Main-St-03874/home/88234930,PrimeMLS,4971641,N,Y,42.868628,-70.843355
MLS Listing,,Single Family Residential,97 South St,Portsmouth,NH,03801,1100000,4,2.0,Portsmouth,1620,3484,1713,58,679,,Active,,,https://www.redfin.com/NH/Portsmouth/97-South-St-03801/home/87962891,PrimeMLS,4971502,N,Y,43.0716241,-70.751531
MLS Listing,,Single Family Residential,11 Raeder Dr,Stratham,NH,03885,774900,5,2.5,Stratham,3319,73616,1976,58,233,,Active,,,https://www.redfin.com/NH/Stratham/11-Raeder-Dr-03885/home/88032673,PrimeMLS,4971454,N,Y,43.0112595,-70.9221016
MLS Listing,,Single Family Residential,68 Drinkwater Rd,Exeter,NH,03833,849000,3,3.0,Exeter,2368,93654,1987,58,359,,Active,,,https://www.redfin.com/NH/Exeter/68-Drinkwater-Rd-03833/home/82664013,PrimeMLS,4971355,N,Y,42.9614474,-70.9312507
MLS Listing,,Mobile/Manufactured Home,8 Holly Cir,North Hampton,NH,03862,239000,3,2.0,North Hampton,960,,1994,60,249,495,Active,,,https://www.redfin.com/NH/North-Hampton/8-Holly-Cir-03862/home/96487193,PrimeMLS,4971256,N,Y,42.9949016,-70.8124944
MLS Listing,,Single Family Residential,23 Nottingham Rd,Deerfield,NH,03037,650000,3,2.0,Deerfield,2288,2247696,1840,61,284,,Active,,,https://www.redfin.com/NH/Deerfield/23-Nottingham-Rd-03037/home/88272485,PrimeMLS,4971227,N,Y,43.1416483,-71.2265616
MLS Listing,,Condo/Co-op,10 Sally Sweets Way Unit UPH 303,Salem,NH,03079,1175000,2,2.5,Salem,2177,,2021,61,540,893,Active,,,https://www.redfin.com/NH/Salem/10-Sally-Sweets-Way-03079/unit-303/home/175175507,PrimeMLS,4971216,N,Y,42.7794838,-71.2060542
MLS Listing,,Vacant Land,"Route 27 Unit 25,26,27",Raymond,NH,03077,769000,,,Raymond,,284446,,61,,,Active,,,https://www.redfin.com/NH/Raymond/26-New-Hampshire-27-03077/unit-25-26-27/home/187639946,PrimeMLS,4971175,N,Y,43.0369841,-71.1549144
MLS Listing,,Single Family Residential,630 Central Rd,Rye,NH,03871,1695000,3,2.5,Rye,2189,14374,1963,63,774,,Active,,,https://www.redfin.com/NH/Rye-Beach/630-Central-Rd-03871/home/88284581,PrimeMLS,4970806,N,Y,42.985321,-70.7721589
MLS Listing,,Vacant Land,20 Pray St,Portsmouth,NH,03801,950000,,,Portsmouth,,8712,,63,,,Active,,,https://www.redfin.com/NH/Portsmouth/20-Pray-St-03801/home/187602272,PrimeMLS,4970739,N,Y,43.0718356,-70.7495281
MLS Listing,,Single Family Residential,113 Danville Rd,Hampstead,NH,03826,719900,4,2.5,Hampstead,2864,114562,2023,64,251,,Active,,,https://www.redfin.com/NH/East-Hampstead/113-Danville-Rd-03826/home/179809700,PrimeMLS,4970682,N,Y,42.8959697,-71.1318485
MLS Listing,,Condo/Co-op,28 Kings Hwy #1,Hampton,NH,03842,473500,3,1.0,Hampton,1000,,1920,65,474,445,Active,,,https://www.redfin.com/NH/Hampton/28-Kings-Hwy-03842/unit-1/home/109827728,PrimeMLS,4970537,N,Y,42.9286114,-70.7994351
MLS Listing,,Townhouse,136 Driftwood #47,Sandown,NH,03873,684900,2,2.5,Sandown,2800,2178000,2023,65,245,385,Active,,,https://www.redfin.com/NH/Sandown/136-Driftwood-03873/unit-47/home/187549633,MLS PIN,73160647,N,Y,42.930876,-71.180499
MLS Listing,,Townhouse,136 driftwood Cir #47,Sandown,NH,03873,684900,2,2.5,Sandown,2800,1960200,2023,65,245,385,Active,,,https://www.redfin.com/NH/Sandown/136-driftwood-CIR-03873/unit-47/home/187549361,PrimeMLS,4970512,N,Y,42.94117631061566,-71.15138393096923
MLS Listing,,Condo/Co-op,25 Mid Trail Crossing Ln,Windham,NH,03087,866900,2,2.5,Windham,2300,,2023,65,377,275,Active,,,https://www.redfin.com/NH/Windham/25-Mid-Trail-Crossing-LN-03087/home/187547762,PrimeMLS,4970498,N,Y,42.83770481274585,-71.26400901031494
MLS Listing,,Vacant Land,TBD Mitchell Rd Unit 1N-1,Nottingham,NH,03290,185900,,,Nottingham,,87120,,65,,,Active,,,https://www.redfin.com/NH/Nottingham/TBD-Mitchell-RD-03290/unit-1N-1/home/187532675,PrimeMLS,4970415,N,Y,43.122400000001,-71.1089
MLS Listing,,Condo/Co-op,7 Willey Creek Rd #305,Exeter,NH,03833,564900,2,2.0,Exeter,1623,479160,2019,67,348,385,Active,,,https://www.redfin.com/NH/Exeter/7-Willey-Creek-Rd-03833/unit-305/home/166184835,PrimeMLS,4970347,N,Y,42.998342,-70.9706306
MLS Listing,,Mobile/Manufactured Home,51 Deer Run Ln #35,Northwood,NH,03261,124950,3,2.0,Northwood,1064,,1997,68,117,,Active,,,https://www.redfin.com/NH/Northwood/51-Deer-Run-Ln-03261/unit-35/home/187516073,PrimeMLS,4970235,N,Y,43.2046636,-71.1719935
MLS Listing,,Single Family Residential,98-100 Amesbury Rd,Kensington,NH,03833,1150000,3,2.5,Kensington,5134,85813,1967,69,224,,Active,,,https://www.redfin.com/NH/Kensington/98-Amesbury-Rd-03833/home/187549720,PrimeMLS,4970109,N,Y,42.9341202,-70.9457403
MLS Listing,,Condo/Co-op,13 Mid Trail Crossing Ln,Windham,NH,03087,929900,2,3.0,Windham,3053,1219680,2023,70,305,275,Active,,,https://www.redfin.com/NH/Windham/13-Mid-Trail-Crossing-LN-03087/home/187462757,PrimeMLS,4969916,N,Y,42.83676073329911,-71.26495314788818
MLS Listing,,Single Family Residential,"79 The Cliffs At Evergreen, Cliffside Dr",Auburn,NH,03032,750900,2,2.0,Auburn,1674,,2023,70,449,415,Active,November-30-2023 11:00 AM,November-30-2023 02:00 PM,https://www.redfin.com/NH/Auburn/79-The-Cliffs-At-Evergreen-Cliffside-DR-03032/home/188064669,PrimeMLS,4969810,N,Y,43.02255250103623,-71.36139135714718
MLS Listing,,Multi-Family (2-4 Unit),55 Woodstock St,Hampton,NH,03842,1299000,7,3.0,Hampton,3590,7405,1960,70,362,,Active,,,https://www.redfin.com/NH/Hampton/55-Woodstock-St-03842/home/88261171,PrimeMLS,4969789,N,Y,42.891492,-70.814189
MLS Listing,,Single Family Residential,3 Old Coach Rd,Kingston,NH,03811-8,845000,3,2.5,Kingston,3042,82764,2001,71,278,,Active,,,https://www.redfin.com/NH/Kingston/3-Old-Coach-Rd-03848/home/88174849,PrimeMLS,4969726,N,Y,42.889123,-71.0791883
MLS Listing,,Single Family Residential,35 Artwill Ave,Portsmouth,NH,03801,1200000,3,3.0,Portsmouth,2631,16552,1937,71,456,,Active,,,https://www.redfin.com/NH/Portsmouth/35-Artwill-Ave-03801/home/187449615,PrimeMLS,4969709,N,Y,43.05836316088399,-70.76881133862305
MLS Listing,,Single Family Residential,27 Shaw Rd,Portsmouth,NH,03801,1550000,4,2.5,Portsmouth,3210,20037,1928,71,483,,Active,,,https://www.redfin.com/NH/Portsmouth/27-Shaw-Rd-03801/home/87965900,PrimeMLS,4963479,N,Y,43.0562251,-70.7490173
MLS Listing,,Single Family Residential,2 Emery Ln,Stratham,NH,03885,1199000,6,5.0,Stratham,4617,110642,1880,71,260,,Active,,,https://www.redfin.com/NH/Stratham/2-Emery-Ln-03885/home/87083795,PrimeMLS,4969683,N,Y,43.0195839,-70.9182236
MLS Listing,,Vacant Land,23 Winding Brook Dr #18,Stratham,NH,03885,250000,,,Stratham,,65340,,72,,,Active,,,https://www.redfin.com/NH/Stratham/23-Winding-Brook-Dr-03885/unit-18/home/184300720,PrimeMLS,4969540,N,Y,43.0213596,-70.9243445
MLS Listing,,Single Family Residential,332 Broad St,Portsmouth,NH,03801,1195000,3,2.0,Portsmouth,2450,9583,1922,72,488,,Active,,,https://www.redfin.com/NH/Portsmouth/332-Broad-St-03801/home/87963661,PrimeMLS,4969484,N,Y,43.065389,-70.7590427
MLS Listing,,Vacant Land,51 Pond St,Newton,NH,03858,1600000,,,Newton,,945252,,72,,,Active,,,https://www.redfin.com/NH/Newton/51-Pond-St-03858/home/88073597,MLS PIN,73157834,N,Y,42.88035,-71.039785
MLS Listing,,Single Family Residential,5 Horizon Way,Plaistow,NH,03865,899000,3,2.5,Plaistow,2496,7138,2023,73,360,50,Active,,,https://www.redfin.com/NH/Plaistow/5-Horizon-WAY-03865/home/187359729,MLS PIN,73157659,N,Y,42.835273708690494,-71.07578565063477
MLS Listing,,Single Family Residential,12 Cotton Farm Ln,North Hampton,NH,03862,1695000,4,5.0,North Hampton,5856,88426,1996,74,289,,Active,,,https://www.redfin.com/NH/North-Hampton/12-Cotton-Farm-Ln-03862/home/58877794,PrimeMLS,4969334,N,Y,42.9707535,-70.7889998
MLS Listing,,Single Family Residential,112 South Rd,Brentwood,NH,03833,499900,5,1.5,Brentwood,1984,40075,1963,74,252,,Active,,,https://www.redfin.com/NH/Kensington/112-South-Rd-03833/home/103448558,PrimeMLS,4969332,N,Y,42.916122,-70.975311
MLS Listing,,Vacant Land,03128-1 Stark Rd Lot 03128-1,Derry,NH,03038,225000,,,Derry,,91911,,74,,,Active,,,https://www.redfin.com/NH/Derry/03128-03121-Stark-Rd-03038/unit-03128-1/home/187410969,PrimeMLS,4969322,N,Y,42.88778994765397,-71.30040769577026
MLS Listing,,Vacant Land,0 Stark Rd Lot 03128,Derry,NH,03038,225000,,,Derry,,91911,,74,,,Active,,,https://www.redfin.com/NH/Derry/0-Stark-Rd-03038/unit-03128/home/187410911,PrimeMLS,4969319,N,Y,42.8543986,-71.2754274
MLS Listing,,Single Family Residential,180 North Rd,Deerfield,NH,03037,479000,1,1.5,Deerfield,2804,21780,1870,75,171,,Active,,,https://www.redfin.com/NH/Deerfield/180-North-Rd-03037/home/88273068,PrimeMLS,4969167,N,Y,43.1708164,-71.2564472
MLS Listing,,Vacant Land,9 Abby Rd Lot 9,Plaistow,NH,03865,389900,,,Plaistow,,110642,,75,,,Active,,,https://www.redfin.com/NH/Plaistow/9-Abby-RD-03865/unit-9/home/187393802,PrimeMLS,4969151,N,Y,42.81258518662286,-71.0895447592468
MLS Listing,,Vacant Land,29 Gary Ln Unit 95/82,Exeter,NH,03833,440000,,,Exeter,,631620,,76,,,Active,,,https://www.redfin.com/NH/Exeter/29-Gary-Ln-03833/unit-95-82/home/187382434,PrimeMLS,4969062,N,Y,42.968765,-70.956118
MLS Listing,,Single Family Residential,21 Main St,Plaistow,NH,03865,334900,2,1.0,Plaistow,915,30927,1960,76,366,,Active,,,https://www.redfin.com/NH/Plaistow/21-Main-St-03865/home/87999849,PrimeMLS,4969039,N,Y,42.8159782,-71.0996149
MLS Listing,,Single Family Residential,145 South Rd,Deerfield,NH,03037,1950000,5,4.0,Deerfield,9011,1021482,1792,76,216,,Active,,,https://www.redfin.com/NH/Deerfield/145-South-Rd-03037/home/167912961,MLS PIN,73156562,N,Y,43.1081221,-71.2944682
MLS Listing,,Single Family Residential,23 N Shore Rd,Sandown,NH,03873,509900,3,1.5,Sandown,1680,117176,1998,76,304,,Active,,,https://www.redfin.com/NH/Sandown/23-N-Shore-Rd-03873/home/88157667,PrimeMLS,4968873,N,Y,42.923654,-71.190217
MLS Listing,,Vacant Land,108 Lewis Dr,Deerfield,NH,03037,43000,,,Deerfield,,12632,,77,,,Active,,,https://www.redfin.com/NH/Deerfield/108-Lewis-Dr-03037/home/187365211,PrimeMLS,4968869,N,Y,43.159585,-71.2333819
MLS Listing,,Vacant Land,552 First NH Tpke,Northwood,NH,03261,400000,,,Northwood,,217800,,77,,,Active,,,https://www.redfin.com/NH/Northwood/552-1st-NH-Tpke-03261/home/88204878,PrimeMLS,4968771,N,Y,43.2092962,-71.1810498
MLS Listing,,Single Family Residential,74 Lorden Cmns Lot 74,Londonderry,NH,03053,839900,3,3.5,Londonderry,2516,21780,2023,79,334,17,Active,December-2-2023 11:00 AM,December-2-2023 01:00 PM,https://www.redfin.com/NH/Londonderry/74-Lorden-CMNS-Unknown/unit-74/home/184344350,PrimeMLS,4943482,N,Y,42.92097662182126,-71.35146088867187
MLS Listing,,Single Family Residential,3 Moore Ln,Exeter,NH,03833,1695000,4,3.5,Exeter,5230,46609,2006,79,324,63,Active,,,https://www.redfin.com/NH/Exeter/3-Moore-Ln-03833/home/103009789,PrimeMLS,4968456,N,Y,43.018484,-70.950515
MLS Listing,,Single Family Residential,"15 The Cliffs at Evergreen, Evergreen Dr",Auburn,NH,03032,745900,2,2.0,Auburn,1674,,,81,446,415,Active,December-7-2023 11:00 AM,December-7-2023 02:00 PM,https://www.redfin.com/NH/Auburn/321-Hooksett-Rd-03032/home/187218279,PrimeMLS,4968353,N,Y,43.0230013,-71.3624795
MLS Listing,,Mobile/Manufactured Home,27 Conifer Pl,Londonderry,NH,03038,156900,2,2.0,Londonderry,924,,2021,82,170,458,Active,,,https://www.redfin.com/NH/Derry/27-Conifer-Pl-03038/home/143927657,PrimeMLS,4968330,N,Y,42.9384649,-71.3472614
MLS Listing,,Single Family Residential,15 Sea Rd,Rye,NH,03871,3495000,4,4.5,Rye,3504,20037,1999,82,997,,Active,,,https://www.redfin.com/NH/Rye-Beach/15-Sea-Rd-03871/home/108663437,PrimeMLS,4968311,N,Y,42.9781776,-70.766793
MLS Listing,,Multi-Family (5+ Unit),96-100 Main St,Epping,NH,03042,1999900,,,Epping,5352,38332,1860,82,374,,Active,,,https://www.redfin.com/NH/Epping/96-100-Main-St-03042/home/187467125,PrimeMLS,4968275,N,Y,43.035863,-71.073745
MLS Listing,,Single Family Residential,91 Main Mast Cir,New Castle,NH,03854,3150000,4,2.5,New Castle,2621,29620,1970,83,1202,,Active,,,https://www.redfin.com/NH/New-Castle/91-Main-Mast-Cir-03854/home/88312331,PrimeMLS,4968101,N,Y,43.0656801,-70.7218418
MLS Listing,,Single Family Residential,30 Raymond Rd,Deerfield,NH,03037,1000000,3,1.5,Deerfield,2081,3025242,1958,83,481,,Active,,,https://www.redfin.com/NH/Deerfield/30-Raymond-Rd-03037/home/88273299,MLS PIN,73154062,N,Y,43.125422,-71.235102
MLS Listing,,Condo/Co-op,10 Sally Sweets Way Unit V102,Salem,NH,03079,975000,3,3.0,Salem,2450,,2021,83,398,893,Active,,,https://www.redfin.com/NH/Salem/10-Sally-Sweets-Way-03079/unit-V102/home/167112153,PrimeMLS,4967998,N,Y,42.7800508,-71.2069384
MLS Listing,,Single Family Residential,63 Louise Way,Derry,NH,03038,1600000,3,3.5,Derry,3557,2526480,1987,84,450,,Active,,,https://www.redfin.com/NH/Derry/63-Louise-Way-03038/home/96597116,PrimeMLS,4967668,N,Y,42.88998,-71.28033
MLS Listing,,Condo/Co-op,34 Stephen C. Savage Way,Plaistow,NH,03865,599900,3,2.5,Plaistow,1700,,2023,84,353,262,Active,,,https://www.redfin.com/NH/Plaistow/34-Stephen-C-Savage-WAY-03865/home/187229686,PrimeMLS,4967858,N,Y,42.83683146952731,-71.0968141693115
MLS Listing,,Condo/Co-op,70 Maplewood Ave Unit 404/406,Portsmouth,NH,03801,4900000,5,3.5,Portsmouth,5055,,2024,85,969,1172,Active,,,https://www.redfin.com/NH/Portsmouth/70-Maplewood-Ave-03801/unit-404-406/home/187224401,PrimeMLS,4967724,N,Y,43.077635,-70.762138
MLS Listing,,Vacant Land,215 Epping,Exeter,NH,03833,498000,,,Exeter,,88427,,85,,,Active,,,https://www.redfin.com/NH/Exeter/215-Epping-Rd-03833/home/174644026,MLS PIN,73153485,N,Y,43.005566,-70.983591
MLS Listing,,Condo/Co-op,32 Ashworth Ave #333,Hampton,NH,03842,198900,1,1.0,Hampton,378,47916,1988,85,526,275,Active,,,https://www.redfin.com/NH/Hampton/32-Ashworth-Ave-03842/unit-333/home/88263985,MLS PIN,73153341,N,Y,42.91187,-70.8126921
